{"version": 0.6, "generator": "Overpass API 0.7.62.10 2d4cfc48", "osm3s": {"timestamp_osm_base": "2026-03-06T11:59:58Z", "copyright": "The data included in this document is from www.openstreetmap.org. The data is made available under ODbL."}, "elements": [{"type": "node", "id": 446288239, "lat": 41.0001901, "lon": 28.8007381, "tags": {"amenity": "fuel", "brand": "Class Petrol", "name": "Class Petrol"}}, {"type": "node", "id": 1695103519, "lat": 41.0042734, "lon": 28.6841172, "tags": {"amenity": "fuel", "brand": "TotalEnergies", "brand:wikidata": "Q154037", "brand:wikipedia": "fr:TotalEnergies", "name": "Total"}}, {"type": "node", "id": 2277832475, "lat": 40.9961049, "lon": 28.6252197, "tags": {"amenity": "fuel", "brand": "Alpet", "brand:wikidata": "Q62131561", "name": "Alpet G\u00fcrp\u0131nar", "operator": "Alpet"}}, {"type": "node", "id": 2429198871, "lat": 41.041378, "lon": 28.832275, "tags": {"amenity": "fuel", "brand": "TotalEnergies", "brand:wikidata": "Q154037", "fuel:diesel": "yes", "fuel:lpg": "yes", "fuel:octane_98": "yes", "name": "Total", "toilets:wheelchair": "no", "wheelchair": "yes"}}, {"type": "node", "id": 2716711598, "lat": 40.9879309, "lon": 28.7960684, "tags": {"amenity": "fuel", "brand": "Shell", "brand:wikidata": "Q110716465", "brand:wikipedia": "en:Royal Dutch Shell", "name": "Shell \u015eenlikk\u00f6y"}}, {"type": "node", "id": 2928531148, "lat": 40.9994399, "lon": 28.7135734, "tags": {"amenity": "fuel", "brand": "Opet", "brand:wikidata": "Q7072824", "brand:wikipedia": "en:Royal Dutch Shell", "check_date:compressed_air": "2022-12-25", "compressed_air": "yes", "name": "Opet"}}, {"type": "node", "id": 3130909268, "lat": 41.0080248, "lon": 28.8816979, "tags": {"amenity": "fuel", "brand": "Opet", "brand:wikidata": "Q7072824", "brand:wikipedia": "en:BP", "name": "Opet"}}, {"type": "node", "id": 3170739257, "lat": 40.9897124, "lon": 28.6651997, "tags": {"addr:housenumber": "3", "amenity": "fuel", "brand": "Shell", "name": "Shell - Karma Grup", "opening_hours": "Mo-Su 00:00-12:00"}}, {"type": "node", "id": 4527983519, "lat": 41.0079948, "lon": 28.5374571, "tags": {"amenity": "fuel", "brand": "Shell", "brand:wikidata": "Q110716465", "name": "Shell-Arpet Petrol", "name:en": "Shell-Arpet Patrol Station"}}, {"type": "node", "id": 4699018057, "lat": 41.0292155, "lon": 28.8065018, "tags": {"addr:city": "\u0130stanbul", "addr:country": "TR", "addr:district": "K\u00fc\u00e7\u00fck\u00e7ekmece", "addr:housenumber": "101", "addr:neighbourhood": "Halkal\u0131 Merkez Mahallesi", "addr:postcode": "34303", "addr:street": "Fatih Caddesi", "amenity": "fuel", "brand": "Opet", "brand:wikidata": "Q7072824", "brand:wikipedia": "tr:Opet", "contact:fax": "+90 2126988899", "contact:phone": "+90 2126988800", "fuel:diesel": "yes", "fuel:lpg": "yes", "name": "Opet K\u00fc\u00e7\u00fck\u00e7ekmece Halkal\u0131", "operator": "Opet Petrolc\u00fcl\u00fck A.\u015e.", "source": "Yellow Pages T\u00fcrkiye", "website": "https://www.opet.com.tr/"}}, {"type": "node", "id": 4699018204, "lat": 40.9877235, "lon": 28.883948, "tags": {"addr:city": "\u0130stanbul", "addr:country": "TR", "addr:district": "Bak\u0131rk\u00f6y", "addr:housenumber": "40", "addr:neighbourhood": "Kartaltepe Mahallesi", "addr:postcode": "34145", "addr:street": "Aksu Caddesi", "amenity": "fuel", "brand": "Opet", "brand:wikidata": "Q7072824", "brand:wikipedia": "tr:Opet", "contact:fax": "+90 2125439332", "contact:phone": "+90 2125836161", "fuel:diesel": "yes", "fuel:lpg": "yes", "name": "Opet Bak\u0131rk\u00f6y", "operator": "Opet Petrolc\u00fcl\u00fck A.\u015e.", "source": "Yellow Pages T\u00fcrkiye", "website": "https://www.opet.com.tr/"}}, {"type": "node", "id": 4699018226, "lat": 40.9930848, "lon": 28.8272163, "tags": {"addr:city": "\u0130stanbul", "addr:country": "TR", "addr:district": "Bah\u00e7elievler", "addr:housenumber": "56", "addr:neighbourhood": "\u00c7oban\u00e7e\u015fme Mahallesi", "addr:postcode": "34197", "addr:street": "Dumlup\u0131nar caddesi", "amenity": "fuel", "brand": "Opet", "brand:wikidata": "Q7072824", "brand:wikipedia": "en:Opet", "contact:fax": "+90 2124527136", "contact:phone": "+90 2125030470", "fuel:diesel": "yes", "fuel:lpg": "yes", "name": "Opet Bah\u00e7elievler \u00c7oban\u00e7e\u015fme", "operator": "Erhan Dedeo\u011flu Petrol", "source": "Yellow Pages T\u00fcrkiye", "website": "https://www.opet.com.tr/"}}, {"type": "node", "id": 4699018234, "lat": 41.023118, "lon": 28.686603, "tags": {"addr:city": "\u0130stanbul", "addr:country": "TR", "addr:district": "Esenyurt", "addr:housenumber": "86", "addr:neighbourhood": "\u0130ncirtepe Mahallesi", "addr:postcode": "34510", "addr:street": "Do\u011fan Arasl\u0131 Bulvar\u0131", "amenity": "fuel", "brand": "Opet", "brand:wikidata": "Q7072824", "brand:wikipedia": "tr:Opet", "contact:fax": "+90 2126208868", "contact:phone": "+90 2125967301", "fuel:diesel": "yes", "fuel:lpg": "yes", "name": "Opet", "operator": "Opet Petrolc\u00fcl\u00fck A.\u015e.", "source": "Yellow Pages T\u00fcrkiye", "website": "https://www.opet.com.tr/"}}, {"type": "node", "id": 4699018252, "lat": 40.99775, "lon": 28.6052587, "tags": {"addr:city": "\u0130stanbul", "addr:country": "TR", "addr:district": "B\u00fcy\u00fck\u00e7ekmece", "addr:housenumber": "1", "addr:neighbourhood": "P\u0131nartepe Mahallesi", "addr:postcode": "34500", "addr:street": "Turgut \u00d6zal 1. Caddesi", "amenity": "fuel", "brand": "Opet", "brand:wikidata": "Q7072824", "brand:wikipedia": "tr:Opet", "contact:fax": "+90 2128809083", "contact:phone": "+90 2128809080", "fuel:diesel": "yes", "fuel:lpg": "yes", "name": "Opet Beylikd\u00fcz\u00fc", "operator": "Opet Petrolc\u00fcl\u00fck A.\u015e.", "source": "Yellow Pages T\u00fcrkiye", "website": "https://www.opet.com.tr/"}}, {"type": "node", "id": 4699018254, "lat": 41.0490769, "lon": 28.8768088, "tags": {"addr:city": "\u0130stanbul", "addr:country": "TR", "addr:district": "Esenler", "addr:housenumber": "164", "addr:neighbourhood": "Fevzi \u00c7akmak Mahallesi", "addr:postcode": "34220", "addr:street": "At\u0131\u015falan\u0131 Caddesi", "amenity": "fuel", "brand": "Opet", "brand:wikidata": "Q7072824", "brand:wikipedia": "en:Opet", "contact:fax": "+90 2124319150", "contact:phone": "+90 2124321616", "fuel:diesel": "yes", "fuel:lpg": "yes", "name": "Opet Esenler Fevzi \u00c7akmak", "operator": "Opet Petrolc\u00fcl\u00fck A.\u015e.", "source": "Yellow Pages T\u00fcrkiye", "website": "https://www.opet.com.tr/"}}, {"type": "node", "id": 4699018255, "lat": 41.0477, "lon": 28.859748, "tags": {"addr:city": "\u0130stanbul", "addr:country": "TR", "addr:district": "Ba\u011fc\u0131lar", "addr:housenumber": "171", "addr:neighbourhood": "Fevzi\u00e7akmak Mahallesi", "addr:postcode": "34200", "addr:street": "Osmangazi Caddesi", "amenity": "fuel", "brand": "Opet", "brand:wikidata": "Q7072824", "brand:wikipedia": "tr:Opet", "contact:fax": "+90 2124329697", "contact:phone": "+90 2124329696", "fuel:diesel": "yes", "fuel:lpg": "yes", "name": "Opet Ba\u011fc\u0131lar", "operator": "Opet Petrolc\u00fcl\u00fck A.\u015e.", "source": "Yellow Pages T\u00fcrkiye", "website": "https://www.opet.com.tr/"}}, {"type": "node", "id": 4699018264, "lat": 40.989872, "lon": 28.668452, "tags": {"addr:city": "\u0130stanbul", "addr:country": "TR", "addr:district": "Beylikd\u00fcz\u00fc", "addr:housenumber": "161/A D: 1", "addr:neighbourhood": "Yakuplu Mahallesi", "addr:postcode": "34524", "addr:street": "H\u00fcrriyet Bulvar\u0131", "amenity": "fuel", "brand": "Opet", "brand:wikidata": "Q7072824", "brand:wikipedia": "tr:Opet", "contact:fax": "+90 2128761131", "contact:phone": "+90 2128761113", "fuel:diesel": "yes", "fuel:lpg": "yes", "name": "Opet Beylikd\u00fcz\u00fc", "operator": "Opet Petrolc\u00fcl\u00fck A.\u015e.", "source": "Yellow Pages T\u00fcrkiye", "website": "https://www.opet.com.tr/"}}, {"type": "node", "id": 4699018265, "lat": 41.0115506, "lon": 28.828365, "tags": {"addr:city": "\u0130stanbul", "addr:country": "TR", "addr:district": "Bah\u00e7elievler", "addr:housenumber": "248/A", "addr:neighbourhood": "Yenibosna Merkez Mahallesi", "addr:postcode": "34197", "addr:street": "Y\u0131ld\u0131r\u0131m Beyaz\u0131t Caddesi", "amenity": "fuel", "brand": "Opet", "brand:wikidata": "Q7072824", "brand:wikipedia": "en:Opet", "contact:fax": "+90 2124512196", "contact:phone": "+90 2124512195", "fuel:diesel": "yes", "fuel:lpg": "yes", "name": "Opet Bah\u00e7elievler", "operator": "Opet Petrolc\u00fcl\u00fck A.\u015e.", "source": "Yellow Pages T\u00fcrkiye", "website": "https://www.opet.com.tr/"}}, {"type": "node", "id": 4699018284, "lat": 41.006514, "lon": 28.6676766, "tags": {"addr:city": "\u0130stanbul", "addr:country": "TR", "addr:district": "Esenyurt", "addr:housenumber": "19", "addr:neighbourhood": "G\u00fczelyurt Mahallesi", "addr:postcode": "34515", "addr:street": "Haramidere Caddesi", "amenity": "fuel", "brand": "Opet", "brand:wikidata": "Q7072824", "brand:wikipedia": "tr:Opet", "contact:fax": "+90 2128543648", "contact:phone": "+90 2128543642", "fuel:diesel": "yes", "fuel:lpg": "yes", "name": "Opet Esenyurt G\u00fczelyurt", "operator": "Opet Petrolc\u00fcl\u00fck A.\u015e.", "source": "Yellow Pages T\u00fcrkiye", "website": "https://www.opet.com.tr/"}}, {"type": "node", "id": 4699018475, "lat": 41.032443, "lon": 28.883817, "tags": {"addr:city": "\u0130stanbul", "addr:country": "TR", "addr:district": "G\u00fcng\u00f6ren", "addr:housenumber": "4", "addr:neighbourhood": "Gen\u00e7osman Mahallesi", "addr:postcode": "34165", "addr:street": "Orgeneral E\u015fref Bitlis Caddesi", "amenity": "fuel", "brand:wikipedia": "tr:Opet", "fuel:diesel": "yes", "fuel:lpg": "yes", "name": "Mehmet\u00e7ik Petrol"}}, {"type": "node", "id": 4699019952, "lat": 41.05038, "lon": 28.62848, "tags": {"addr:city": "\u0130stanbul", "addr:country": "TR", "addr:district": "Esenyurt", "addr:housenumber": "52", "addr:neighbourhood": "Ak\u00e7aburgaz Mahallesi", "addr:postcode": "34522", "addr:street": "Had\u0131mk\u00f6y Yolu Caddesi", "amenity": "fuel", "brand": "Opet", "brand:wikidata": "Q7072824", "brand:wikipedia": "en:Opet", "compressed_air": "yes", "contact:fax": "+90 2128866255", "contact:phone": "+90 2128865355", "fuel:diesel": "yes", "fuel:lpg": "yes", "name": "Opet Esenyurt", "operator": "Opet Petrolc\u00fcl\u00fck A.\u015e.", "source": "Yellow Pages T\u00fcrkiye", "website": "https://www.opet.com.tr/"}}, {"type": "node", "id": 4699022955, "lat": 41.050131, "lon": 28.812081, "tags": {"addr:city": "Istanbul", "addr:country": "TR", "addr:district": "Ba\u011fc\u0131lar", "addr:housenumber": "11", "addr:neighbourhood": "Mahmutbey Mahallesi", "addr:postcode": "34218", "addr:street": "Ta\u015foca\u011f\u0131 Caddesi Tanyeli Sokak", "amenity": "fuel", "brand": "Opet", "brand:wikidata": "Q7072824", "brand:wikipedia": "en:Opet", "contact:fax": "+90 2124474073", "contact:phone": "+90 2124474071", "fuel:diesel": "yes", "fuel:lpg": "yes", "name": "Opet Ba\u011fc\u0131lar", "name:ar": "\u0627\u0648\u0628\u064a\u062a \u0628\u0627\u063a\u062c\u0644\u0631", "operator": "Opet Petrolc\u00fcl\u00fck A.\u015e.", "source": "Yellow Pages T\u00fcrkiye", "website": "https://www.opet.com.tr/"}}, {"type": "node", "id": 4699022956, "lat": 41.019717, "lon": 28.9088162, "tags": {"addr:city": "\u0130stanbul", "addr:country": "TR", "addr:district": "Zeytinburnu", "addr:housenumber": "117", "addr:neighbourhood": "Maltepe Mahallesi", "addr:postcode": "34010", "addr:street": "Davut Pa\u015fa Caddesi Ser\u00e7e Kale Sokak", "amenity": "fuel", "brand": "Opet", "brand:wikidata": "Q7072824", "brand:wikipedia": "en:Opet", "contact:fax": "+90 2124813772", "contact:phone": "+90 2124818143", "fuel:diesel": "yes", "fuel:lpg": "yes", "name": "Opet Topkap\u0131", "operator": "Opet Petrolc\u00fcl\u00fck A.\u015e.", "source": "Yellow Pages T\u00fcrkiye", "website": "https://www.opet.com.tr/"}}, {"type": "node", "id": 4699022981, "lat": 41.028799, "lon": 28.790782, "tags": {"addr:city": "\u0130stanbul", "addr:country": "TR", "addr:district": "K\u00fc\u00e7\u00fck\u00e7ekmece", "addr:housenumber": "234", "addr:neighbourhood": "Halkal\u0131 Merkez Mahallesi", "addr:postcode": "34303", "addr:street": "Halkal\u0131 Caddesi", "amenity": "fuel", "brand": "Shell", "brand:wikidata": "Q110716465", "brand:wikipedia": "en:Shell plc", "contact:fax": "+90 2124705259", "contact:phone": "+90 2124705256", "fuel:diesel": "yes", "fuel:lpg": "yes", "name": "Shell", "operator": "Shell & Turcas", "source": "Yellow Pages T\u00fcrkiye", "website": "https://www.opet.com.tr/"}}, {"type": "node", "id": 4699023919, "lat": 41.0179351, "lon": 28.6462917, "tags": {"addr:city": "\u0130stanbul", "addr:country": "TR", "addr:district": "Esenyurt", "addr:housenumber": "82", "addr:neighbourhood": "Cumhuriyet Mahallesi", "addr:postcode": "34515", "addr:street": "Naz\u0131m Hikmet Bulvar\u0131", "amenity": "fuel", "brand": "Opet", "brand:wikidata": "Q7072824", "brand:wikipedia": "tr:Opet", "contact:fax": "+90 2128530974", "contact:phone": "+90 2128530368", "fuel:diesel": "yes", "fuel:lpg": "yes", "name": "Opet Esenyurt", "operator": "Opet Petrolc\u00fcl\u00fck A.\u015e.", "source": "Yellow Pages T\u00fcrkiye", "website": "https://www.opet.com.tr/"}}, {"type": "node", "id": 4699023938, "lat": 41.0275113, "lon": 28.8574214, "tags": {"addr:city": "\u0130stanbul", "addr:country": "TR", "addr:district": "Ba\u011fc\u0131lar", "addr:housenumber": "81", "addr:neighbourhood": "Merkez Mahallesi", "addr:postcode": "34200", "addr:street": "Ba\u011fc\u0131lar Caddesi", "amenity": "fuel", "brand": "Opet", "brand:wikidata": "Q7072824", "brand:wikipedia": "en:Opet", "contact:fax": "+90 2126347151", "contact:phone": "+90 2126345877", "fuel:diesel": "yes", "fuel:lpg": "yes", "name": "Opet Ba\u011fc\u0131lar", "operator": "Opet Petrolc\u00fcl\u00fck A.\u015e.", "source": "Yellow Pages T\u00fcrkiye", "website": "https://www.opet.com.tr/"}}, {"type": "node", "id": 4807075794, "lat": 40.9816359, "lon": 28.8908742, "tags": {"amenity": "fuel", "brand": "Aygaz", "brand:wikidata": "Q4831225", "name": "Aygaz"}}, {"type": "node", "id": 4846902293, "lat": 41.0118047, "lon": 28.8178457, "tags": {"amenity": "fuel", "brand": "TotalEnergies", "brand:wikidata": "Q154037", "brand:wikipedia": "fr:TotalEnergies", "name": "Total"}}, {"type": "node", "id": 4846902294, "lat": 41.0154366, "lon": 28.8243738, "tags": {"amenity": "fuel"}}, {"type": "node", "id": 4846902295, "lat": 41.0138923, "lon": 28.8259069, "tags": {"amenity": "fuel", "brand": "BP", "brand:wikidata": "Q152057", "brand:wikipedia": "en:BP", "fixme": "check brand, BP in Turkey is acquired by Petrol Ofisi. Don't delete fixme if still BP please.", "name": "BP"}}, {"type": "node", "id": 4846902318, "lat": 41.0334125, "lon": 28.8513955, "tags": {"amenity": "fuel"}}, {"type": "node", "id": 4846915123, "lat": 41.0367739, "lon": 28.852891, "tags": {"amenity": "fuel"}}, {"type": "node", "id": 4846915132, "lat": 41.0420795, "lon": 28.8510572, "tags": {"amenity": "fuel"}}, {"type": "node", "id": 4846948582, "lat": 41.0127401, "lon": 28.9006253, "tags": {"amenity": "fuel", "brand": "Opet", "brand:wikidata": "Q7072824", "brand:wikipedia": "en:Opet", "name": "Opet"}}, {"type": "node", "id": 4855516912, "lat": 40.9936173, "lon": 28.7095758, "tags": {"amenity": "fuel", "brand": "Alpet", "brand:wikidata": "Q62131561", "name": "Alpet"}}, {"type": "node", "id": 4855518349, "lat": 41.019443, "lon": 28.6768201, "tags": {"amenity": "fuel", "brand": "Shell", "brand:wikidata": "Q110716465", "fuel:diesel": "yes", "fuel:lpg": "yes", "fuel:octane_95": "yes", "name": "Shell", "self_service": "no"}}, {"type": "node", "id": 4908865216, "lat": 41.002535, "lon": 28.7874784, "tags": {"addr:city": "\u0130stanbul", "addr:district": "K\u00fc\u00e7\u00fck\u00e7ekmece", "addr:housenumber": "121", "addr:neighbourhood": "Sultan Murat Mah.", "addr:postcode": "34295", "addr:street": "Sultan Murat Caddesi", "amenity": "fuel", "brand": "Opet", "brand:wikidata": "Q7072824", "brand:wikipedia": "en:Opet", "name": "Opet", "phone": "+90 2124267844"}}, {"type": "node", "id": 4908865534, "lat": 41.0345575, "lon": 28.8333113, "tags": {"addr:city": "\u0130stanbul", "addr:district": "Ba\u011fc\u0131lar", "addr:street": "Mahmutbey Caddesi", "amenity": "fuel", "brand": "Petrol Ofisi", "brand:wikidata": "Q1278087", "name": "Petrol Ofisi", "name:ar": "\u0628"}}, {"type": "node", "id": 4908865535, "lat": 41.0399047, "lon": 28.833644, "tags": {"amenity": "fuel"}}, {"type": "node", "id": 4908865540, "lat": 41.045908, "lon": 28.8298889, "tags": {"amenity": "fuel"}}, {"type": "node", "id": 4908893564, "lat": 40.9950934, "lon": 28.8950522, "tags": {"addr:city": "\u0130stanbul", "addr:district": "Zeytinburnu", "addr:street": "Prof. Dr.turan G\u00fcne\u015f Caddesi", "amenity": "fuel", "brand": "BP", "brand:wikidata": "Q152057", "brand:wikipedia": "en:BP", "fixme": "check brand, BP in Turkey is acquired by Petrol Ofisi. Don't delete fixme if still BP please.", "name": "BP", "name:ar": "\u0645\u062d\u0637\u0629 \u0648\u0642\u0648\u062f \u0628 \u0628 \u0627\u0648\u0644\u062a\u064a\u0645\u0627\u062a"}}, {"type": "node", "id": 4956703288, "lat": 41.027129, "lon": 28.8568809, "tags": {"amenity": "fuel"}}, {"type": "node", "id": 4965256366, "lat": 41.0099945, "lon": 28.7944248, "tags": {"amenity": "fuel", "brand": "Petrol Ofisi", "brand:wikidata": "Q1278087", "brand:wikipedia": "en:Royal Dutch Shell", "name": "Petrol Ofisi"}}, {"type": "node", "id": 4965256582, "lat": 41.0293707, "lon": 28.795751, "tags": {"amenity": "fuel"}}, {"type": "node", "id": 4978760118, "lat": 40.9916607, "lon": 28.8380623, "tags": {"amenity": "fuel", "brand": "Petrol Ofisi", "brand:wikidata": "Q1278087", "brand:wikipedia": "en:Petrol Ofisi", "compressed_air": "yes", "name": "Petrol Ofisi"}}, {"type": "node", "id": 4979178070, "lat": 40.9853444, "lon": 28.785827, "tags": {"amenity": "fuel", "brand": "Opet", "brand:wikidata": "Q7072824", "name": "Opet", "self_service": "no"}}, {"type": "node", "id": 4986401524, "lat": 41.0313261, "lon": 28.8229913, "tags": {"addr:city": "\u0130stanbul", "addr:district": "Ba\u011fc\u0131lar", "addr:street": "Ko\u00e7man Caddesi", "amenity": "fuel", "brand": "TotalEnergies", "brand:wikidata": "Q154037", "brand:wikipedia": "fr:TotalEnergies", "name": "Total", "name:ar": "\u062a\u0648\u062a\u0627\u0644", "name:tr": "Total"}}, {"type": "node", "id": 4992027984, "lat": 41.033828, "lon": 28.6801411, "tags": {"amenity": "fuel"}}, {"type": "node", "id": 4992280809, "lat": 41.0408294, "lon": 28.6259466, "tags": {"amenity": "fuel"}}, {"type": "node", "id": 4992280814, "lat": 41.0370171, "lon": 28.6247136, "tags": {"amenity": "fuel", "brand": "Shell", "brand:wikidata": "Q110716465", "brand:wikipedia": "en:Royal Dutch Shell", "name": "Shell"}}, {"type": "node", "id": 4992280815, "lat": 41.0270519, "lon": 28.6266991, "tags": {"amenity": "fuel"}}, {"type": "node", "id": 5008916861, "lat": 40.9881116, "lon": 28.8842153, "tags": {"addr:city": "\u0130stanbul", "addr:district": "Bak\u0131rk\u00f6y", "addr:housenumber": "50", "addr:neighbourhood": "Kartaltepe Mahallesi", "addr:postcode": "34145", "addr:street": "Ko\u015fuyolu Caddesi", "amenity": "fuel", "brand": "BP", "brand:wikidata": "Q152057", "contact:email": "veliefendiyolu@bp.com.tr", "contact:phone": "+90 212 466 10 00", "fixme": "check brand, BP in Turkey is acquired by Petrol Ofisi. Don't delete fixme if still BP please.", "name": "BP Veliefendi", "operator": "BP", "wheelchair": "yes"}}, {"type": "node", "id": 5038130206, "lat": 41.0133611, "lon": 28.7874587, "tags": {"amenity": "fuel"}}, {"type": "node", "id": 5038131041, "lat": 40.9920052, "lon": 28.8332033, "tags": {"amenity": "fuel", "brand": "Shell", "brand:wikidata": "Q110716465", "brand:wikipedia": "en:Royal Dutch Shell", "compressed_air": "yes", "name": "Shell"}}, {"type": "node", "id": 5042266233, "lat": 41.0321189, "lon": 28.8002098, "tags": {"amenity": "fuel", "brand": "TotalEnergies", "brand:wikidata": "Q154037", "brand:wikipedia": "fr:Total (entreprise)", "name": "Total"}}, {"type": "node", "id": 5048210016, "lat": 41.0216485, "lon": 28.6875944, "tags": {"amenity": "fuel", "brand": "Aytemiz", "brand:wikidata": "Q62274352", "name": "Aytemiz Esenyurt Tabela"}}, {"type": "node", "id": 5048210226, "lat": 41.0134315, "lon": 28.695405, "tags": {"amenity": "fuel"}}, {"type": "node", "id": 5057611913, "lat": 41.0274482, "lon": 28.8475262, "tags": {"addr:city": "\u0130stanbul", "addr:district": "Ba\u011fc\u0131lar", "addr:street": "Mehmet Akif Bulvar\u0131", "amenity": "fuel", "brand": "Petrol Ofisi", "brand:wikidata": "Q1278087", "name": "Petrol Ofisi Benzin \u0130stasyonu", "name:ar": "\u0645\u062d\u0637\u0629 \u0648\u0642\u0648\u062f"}}, {"type": "node", "id": 5057611914, "lat": 41.0285322, "lon": 28.846468, "tags": {"amenity": "fuel"}}, {"type": "node", "id": 5057611934, "lat": 41.0417944, "lon": 28.8497953, "tags": {"amenity": "fuel"}}, {"type": "node", "id": 5057636838, "lat": 41.0131146, "lon": 28.8468078, "tags": {"amenity": "fuel"}}, {"type": "node", "id": 5057669024, "lat": 41.0098412, "lon": 28.8310577, "tags": {"amenity": "fuel", "brand": "Shell", "brand:wikidata": "Q110716465", "brand:wikipedia": "en:Royal Dutch Shell", "name": "Shell", "opening_hours": "24/7"}}, {"type": "node", "id": 5057698664, "lat": 41.0080791, "lon": 28.7949318, "tags": {"amenity": "fuel", "name": "Milangaz"}}, {"type": "node", "id": 5057699129, "lat": 41.0443621, "lon": 28.7820226, "tags": {"amenity": "fuel", "brand": "Shell", "brand:wikidata": "Q110716465", "brand:wikipedia": "en:Royal Dutch Shell", "name": "Shell"}}, {"type": "node", "id": 5075961008, "lat": 41.0164313, "lon": 28.9492848, "tags": {"addr:city": "\u0130stanbul", "addr:district": "Fatih", "addr:street": "Sofular caddesi", "amenity": "fuel", "brand": "BP", "brand:wikidata": "Q152057", "brand:wikipedia": "en:BP", "fixme": "check brand, BP in Turkey is acquired by Petrol Ofisi. Don't delete fixme if still BP please.", "name": "BP", "name:ar": "\u0645\u062d\u0637\u0629 \u0628\u062a\u0631\u0648\u0644 Bp", "operator": "BP", "phone": "02125216873"}}, {"type": "node", "id": 5105359497, "lat": 41.0283367, "lon": 28.878253, "tags": {"amenity": "fuel"}}, {"type": "node", "id": 5107401717, "lat": 40.98367, "lon": 28.6439262, "tags": {"amenity": "fuel", "brand": "Petrol Ofisi", "brand:wikidata": "Q1278087", "brand:wikipedia": "en:Petrol Ofisi", "name": "Petrol Ofisi"}}, {"type": "node", "id": 5107498125, "lat": 40.9893865, "lon": 28.6188569, "tags": {"amenity": "fuel", "brand": "Alpet", "brand:wikidata": "Q62131561", "name": "Alpet"}}, {"type": "node", "id": 5108169540, "lat": 41.0306299, "lon": 28.6625701, "tags": {"amenity": "fuel"}}, {"type": "node", "id": 5108170071, "lat": 41.0316929, "lon": 28.6575073, "tags": {"amenity": "fuel", "wheelchair": "limited"}}, {"type": "node", "id": 5108791878, "lat": 40.9887409, "lon": 28.6676454, "tags": {"amenity": "fuel", "brand": "Petrol Ofisi", "brand:wikidata": "Q1278087", "brand:wikipedia": "en:Petrol Ofisi", "name": "Petrol Ofisi"}}, {"type": "node", "id": 5112306755, "lat": 41.0423654, "lon": 28.676434, "tags": {"amenity": "fuel", "wheelchair": "yes"}}, {"type": "node", "id": 5113465273, "lat": 41.0177752, "lon": 28.9509568, "tags": {"addr:city": "\u0130stanbul", "addr:district": "Fatih", "addr:street": "Aslanhane Soka\u011f\u0131", "amenity": "fuel", "brand": "BP", "brand:wikidata": "Q152057", "brand:wikipedia": "en:BP", "fixme": "check brand, BP in Turkey is acquired by Petrol Ofisi. Don't delete fixme if still BP please.", "name": "BP", "name:ar": "bp"}}, {"type": "node", "id": 5113486747, "lat": 41.0286169, "lon": 28.9369637, "tags": {"addr:city": "\u0130stanbul", "addr:district": "Fatih", "addr:street": "Fevzi pa\u015fa caddesi", "amenity": "fuel", "brand": "TotalEnergies", "brand:wikidata": "Q154037", "brand:wikipedia": "fr:TotalEnergies", "name": "Total"}}, {"type": "node", "id": 5113592145, "lat": 41.0070444, "lon": 28.9368651, "tags": {"addr:city": "\u0130stanbul", "addr:district": "Fatih", "addr:street": "K\u0131z\u0131lelma Caddesi", "amenity": "fuel", "brand": "BP", "brand:wikidata": "Q152057", "brand:wikipedia": "en:BP", "fixme": "check brand, BP in Turkey is acquired by Petrol Ofisi. Don't delete fixme if still BP please.", "name": "BP", "name:ar": "BP", "phone": "02125881958"}}, {"type": "node", "id": 5113615724, "lat": 41.0297906, "lon": 28.939052, "tags": {"addr:city": "\u0130stanbul", "addr:district": "Fatih", "addr:street": "Borazan tevfik sokak", "amenity": "fuel", "brand": "Aytemiz", "brand:wikidata": "Q62274352", "name": "Aytemiz", "name:ar": "\u0622\u064a \u062a\u064a\u0645\u064a\u0632"}}, {"type": "node", "id": 5115935420, "lat": 41.0072114, "lon": 28.9284307, "tags": {"addr:city": "\u0130stanbul", "addr:district": "Fatih", "addr:street": "Silivrikap\u0131 Caddesi", "amenity": "fuel", "brand": "Opet", "brand:wikidata": "Q7072824", "name": "Opet"}}, {"type": "node", "id": 5128217778, "lat": 41.0502394, "lon": 28.859229, "tags": {"amenity": "fuel"}}, {"type": "node", "id": 5253548270, "lat": 40.9939415, "lon": 28.8945802, "tags": {"addr:neighbourhood": "\u00e7\u0131rp\u0131c\u0131", "amenity": "fuel", "brand": "Shell", "brand:wikidata": "Q110716465", "name": "Shell benzinci", "opening_hours": "24/7", "operator": "shell"}}, {"type": "node", "id": 5283668028, "lat": 41.027751, "lon": 28.9084234, "tags": {"amenity": "fuel"}}, {"type": "node", "id": 5353052167, "lat": 41.0130265, "lon": 28.7916858}, {"type": "node", "id": 5353052168, "lat": 41.0129851, "lon": 28.7919341}, {"type": "node", "id": 5353052169, "lat": 41.0129117, "lon": 28.7919126}, {"type": "node", "id": 5353052170, "lat": 41.0129225, "lon": 28.7918475}, {"type": "node", "id": 5353052171, "lat": 41.012831, "lon": 28.7918207}, {"type": "node", "id": 5353052172, "lat": 41.0128616, "lon": 28.7916374}, {"type": "node", "id": 5370265112, "lat": 41.0080712, "lon": 28.8970539, "tags": {"amenity": "fuel", "brand": "Shell", "brand:wikidata": "Q110716465", "brand:wikipedia": "en:Royal Dutch Shell", "compressed_air": "yes", "name": "Shell"}}, {"type": "node", "id": 5375211991, "lat": 41.0245829, "lon": 28.8064335, "tags": {"amenity": "fuel"}}, {"type": "node", "id": 5375237948, "lat": 41.044584, "lon": 28.8207294, "tags": {"amenity": "fuel", "brand": "Shell", "brand:wikidata": "Q110716465", "brand:wikipedia": "en:Royal Dutch Shell", "name": "Shell"}}, {"type": "node", "id": 5375237950, "lat": 41.0448318, "lon": 28.8169805, "tags": {"amenity": "fuel", "brand": "Aytemiz", "brand:wikidata": "Q62274352", "name": "Aytemiz"}}, {"type": "node", "id": 5418808042, "lat": 40.9909695, "lon": 28.8708226, "tags": {"amenity": "fuel", "brand": "Moil", "brand:wikidata": "Q62296914", "compressed_air": "yes", "name": "Moil", "opening_hours": "24/7"}}, {"type": "node", "id": 5418842117, "lat": 41.0173023, "lon": 28.8904511, "tags": {"amenity": "fuel", "brand": "TotalEnergies", "brand:wikidata": "Q154037", "brand:wikipedia": "fr:TotalEnergies", "name": "Total"}}, {"type": "node", "id": 5462596529, "lat": 41.0449926, "lon": 28.8230339, "tags": {"amenity": "fuel", "brand": "BP", "brand:wikidata": "Q152057", "brand:wikipedia": "en:BP", "fixme": "check brand, BP in Turkey is acquired by Petrol Ofisi. Don't delete fixme if still BP please.", "name": "BP"}}, {"type": "node", "id": 5482975722, "lat": 41.0437082, "lon": 28.9479541, "tags": {"amenity": "fuel", "compressed_air": "yes", "name": "PO"}}, {"type": "node", "id": 5667618755, "lat": 41.020533, "lon": 28.9066419, "tags": {"addr:city": "\u0130stanbul", "addr:district": "Zeytinburnu", "addr:street": "Davutpa\u015fa Caddesi", "amenity": "fuel", "name": "Starpet", "name:ar": "\u0645\u062d\u0637\u0629 \u0628\u0646\u0632\u064a\u0646 \u0633\u062a\u0627\u0631\u0628\u062a", "opening_hours": "24/7"}}, {"type": "node", "id": 5667661771, "lat": 40.9821539, "lon": 28.8937035, "tags": {"addr:city": "\u0130stanbul", "addr:district": "Zeytinburnu", "amenity": "fuel", "brand": "BP", "brand:wikidata": "Q152057", "fixme": "check brand, BP in Turkey is acquired by Petrol Ofisi. Don't delete fixme if still BP please.", "name": "bp ta\u015f\u0131tmat\u0131k", "name:ar": "bp \u0645\u062d\u0637\u0629 \u0648\u0642\u0648\u062f \u0648\u063a\u0633\u064a\u0644 \u0633\u064a\u0627\u0631\u0627\u062a", "opening_hours": "24/7"}}, {"type": "node", "id": 5667687574, "lat": 41.0285248, "lon": 28.8464788, "tags": {"addr:city": "\u0130stanbul", "addr:district": "Ba\u011fc\u0131lar", "addr:street": "Mehmet Akif Bulvar\u0131", "amenity": "fuel", "brand": "Shell", "brand:wikidata": "Q154950", "brand:wikipedia": "en:Royal Dutch Shell", "name": "Shell", "name:ar": "\u0645\u062d\u0637\u0629 \u0648\u0642\u0648\u062f"}}, {"type": "node", "id": 5667689774, "lat": 41.032617, "lon": 28.8341154, "tags": {"addr:city": "\u0130stanbul", "addr:district": "Ba\u011fc\u0131lar", "addr:street": "Mahmutbey caddesi", "amenity": "fuel", "brand": "Opet", "brand:wikidata": "Q7072824", "brand:wikipedia": "en:Opet", "name": "Opet", "name:ar": "\u063a\u0627\u0632\u064a\u0629 \u0627\u0648\u0628\u064a\u062a"}}, {"type": "node", "id": 5667747971, "lat": 41.0283367, "lon": 28.856824, "tags": {"addr:city": "\u0130stanbul", "addr:district": "Ba\u011fc\u0131lar", "addr:street": "Ba\u011fc\u0131lar Caddesi", "amenity": "fuel", "brand": "TotalEnergies", "brand:wikidata": "Q154037", "brand:wikipedia": "fr:Total \u00c9nergies", "name": "Total Ba\u011fc\u0131lar-2"}}, {"type": "node", "id": 5707236740, "lat": 41.0222354, "lon": 28.7011184, "tags": {"amenity": "fuel"}}, {"type": "node", "id": 5707360358, "lat": 41.0250023, "lon": 28.6592596, "tags": {"amenity": "fuel", "brand": "BP", "brand:wikidata": "Q152057", "fixme": "check brand, BP in Turkey is acquired by Petrol Ofisi. Don't delete fixme if still BP please.", "name": "BP", "opening_hours": "24/7"}}, {"type": "node", "id": 5707508888, "lat": 41.0047978, "lon": 28.8923178, "tags": {"amenity": "fuel", "brand": "BP", "brand:wikidata": "Q152057", "brand:wikipedia": "en:BP", "fixme": "check brand, BP in Turkey is acquired by Petrol Ofisi. Don't delete fixme if still BP please.", "name": "BP"}}, {"type": "node", "id": 5707508889, "lat": 41.0049447, "lon": 28.8920028, "tags": {"amenity": "fuel"}}, {"type": "node", "id": 5909868367, "lat": 41.0298186, "lon": 28.8635582, "tags": {"amenity": "fuel", "name:ar": "\u063a\u0627\u0632\u064a\u0629"}}, {"type": "node", "id": 5992890598, "lat": 41.0336295, "lon": 28.8074676, "tags": {"amenity": "fuel"}}, {"type": "node", "id": 6696452665, "lat": 41.0143136, "lon": 28.8321043, "tags": {"amenity": "fuel"}}, {"type": "node", "id": 6854402223, "lat": 41.0319161, "lon": 28.9058591, "tags": {"amenity": "fuel", "brand": "Petrol Ofisi", "brand:wikidata": "Q1278087", "brand:wikipedia": "en:Petrol Ofisi", "name": "Petrol Ofisi"}}, {"type": "node", "id": 6854402224, "lat": 41.0319758, "lon": 28.9055397, "tags": {"amenity": "fuel", "name": "Starpet"}}, {"type": "node", "id": 6854402244, "lat": 41.0283233, "lon": 28.9168122, "tags": {"amenity": "fuel", "brand": "Petrol Ofisi", "brand:wikidata": "Q1278087", "brand:wikipedia": "en:Petrol Ofisi", "name": "Petrol Ofisi"}}, {"type": "node", "id": 7498451381, "lat": 40.993182, "lon": 28.6303116, "tags": {"amenity": "fuel", "brand": "Energy", "name": "Energy", "operator": "Energy"}}, {"type": "node", "id": 7501444291, "lat": 41.0048016, "lon": 28.6376236, "tags": {"addr:city": "\u0130stanbul", "addr:country": "TR", "addr:district": "Beylikd\u00fcz\u00fc", "addr:housenumber": "16", "addr:neighbourhood": "Cumhuriyet Mahallesi", "addr:postcode": "34520", "addr:street": "Atat\u00fcrk Bulvar\u0131", "amenity": "fuel", "brand": "Opet", "brand:wikidata": "Q7072824", "brand:wikipedia": "tr:Opet", "contact:fax": "+90 2128735755", "contact:phone": "+90 2128710666", "fuel:diesel": "yes", "fuel:lpg": "yes", "name": "Opet Beylikd\u00fcz\u00fc", "operator": "Opet Petrolc\u00fcl\u00fck A.\u015e.", "source": "Yellow Pages T\u00fcrkiye", "website": "https://www.opet.com.tr/"}}, {"type": "node", "id": 7506071047, "lat": 40.9894325, "lon": 28.6573616, "tags": {"amenity": "fuel", "brand": "TotalEnergies", "brand:wikidata": "Q154037", "check_date": "2025-05-04", "name": "TotalEnergies"}}, {"type": "node", "id": 7518367166, "lat": 41.0306413, "lon": 28.6825978, "tags": {"amenity": "fuel", "name": "Teco"}}, {"type": "node", "id": 7523601250, "lat": 41.0120959, "lon": 28.6818702, "tags": {"amenity": "fuel", "source": "bing"}}, {"type": "node", "id": 8739742042, "lat": 41.0243095, "lon": 28.6235887, "tags": {"amenity": "fuel", "brand": "TotalEnergies", "brand:wikidata": "Q154037", "name": "TotalEnergies"}}, {"type": "node", "id": 8739798441, "lat": 41.01835, "lon": 28.632575, "tags": {"amenity": "fuel", "brand": "Shell", "brand:wikidata": "Q110716465", "brand:wikipedia": "en:Royal Dutch Shell", "name": "Shell G\u00fcrp\u0131nar Kav\u015fak"}}, {"type": "node", "id": 8745873184, "lat": 41.0023361, "lon": 28.8860995, "tags": {"amenity": "fuel", "brand": "Class", "name": "Class"}}, {"type": "node", "id": 8857110730, "lat": 41.0009743, "lon": 28.8226446, "tags": {"amenity": "fuel", "brand": "Aytemiz", "brand:wikidata": "Q62274352", "name": "Aytemiz Bah\u00e7elievler \u00c7oban\u00e7e\u015fme"}}, {"type": "node", "id": 9107841647, "lat": 41.0274062, "lon": 28.8125769, "tags": {"amenity": "fuel", "brand": "Opet", "brand:wikidata": "Q7072824", "brand:wikipedia": "en:Opet", "name": "Opet Ba\u011fc\u0131lar 15 Temmuz"}}, {"type": "node", "id": 9128770763, "lat": 41.0178124, "lon": 28.4830719, "tags": {"amenity": "fuel", "brand": "Petrol Ofisi", "brand:wikidata": "Q1278087", "name": "Petrol Ofisi"}}, {"type": "node", "id": 9164830220, "lat": 40.9950191, "lon": 28.7052039, "tags": {"addr:city": "Istanbul", "addr:district": "avc\u0131lar", "addr:neighbourhood": "\u00dcniversite Mahallesi", "amenity": "fuel", "brand": "Aygaz", "brand:wikidata": "Q4831225", "name": "Aygaz", "operator": "Aygaz"}}, {"type": "node", "id": 9169578683, "lat": 41.0425372, "lon": 28.8466338, "tags": {"amenity": "fuel"}}, {"type": "node", "id": 9177606423, "lat": 41.0143393, "lon": 28.6469932, "tags": {"amenity": "fuel", "brand": "BP", "brand:wikidata": "Q152057", "brand:wikipedia": "en:BP", "fixme": "check brand, BP in Turkey is acquired by Petrol Ofisi. Don't delete fixme if still BP please.", "name": "BP B\u00fcy\u00fck\u00e7ekmece Yakuplu"}}, {"type": "node", "id": 9283105742, "lat": 41.0095046, "lon": 28.523367, "tags": {"amenity": "fuel", "brand": "Aytemiz", "brand:wikidata": "Q62274352", "name": "Aytemiz B\u00fcy\u00fck\u00e7ekmece G\u00fczelce", "source": "bing"}}, {"type": "node", "id": 9283105743, "lat": 41.0103957, "lon": 28.5316044, "tags": {"amenity": "fuel", "brand": "TotalEnergies", "brand:wikidata": "Q154037", "brand:wikipedia": "fr:TotalEnergies", "name": "Total Gas Station", "name:en": "Total Gas Station", "name:tr": "Total Gas Station", "source": "bing"}}, {"type": "node", "id": 9283105744, "lat": 41.0126432, "lon": 28.53724, "tags": {"amenity": "fuel", "brand": "Aygaz", "brand:wikidata": "Q4831225", "brand:wikipedia": "en:Royal Dutch Shell", "name": "Aygaz", "source": "bing"}}, {"type": "node", "id": 9283105745, "lat": 41.0125326, "lon": 28.5413531, "tags": {"addr:city": "\u0130stanbul", "addr:country": "TR", "addr:district": "B\u00fcy\u00fck\u00e7ekmece", "addr:housenumber": "113", "addr:neighbourhood": "Ekinoba Mahallesi", "addr:postcode": "34535", "addr:street": "E-5 Londra Asfalt\u0131 Caddesi", "amenity": "fuel", "brand": "Opet", "brand:wikidata": "Q7072824", "brand:wikipedia": "en:Opet", "contact:fax": "+90 2128634242", "contact:phone": "+90 2128634545", "fuel:diesel": "yes", "fuel:lpg": "yes", "name": "Opet B\u00fcy\u00fck\u00e7ekmece Ekinoba", "operator": "Opet Petrolc\u00fcl\u00fck A.\u015e.", "source": "Yellow Pages T\u00fcrkiye", "website": "https://www.opet.com.tr/"}}, {"type": "node", "id": 9283105746, "lat": 41.0145481, "lon": 28.5461599, "tags": {"amenity": "fuel", "brand": "Shell", "brand:wikidata": "Q110716465", "brand:wikipedia": "en:Royal Dutch Shell", "name": "Shell Sinanoba"}}, {"type": "node", "id": 9283105747, "lat": 41.013994, "lon": 28.5473981, "tags": {"amenity": "fuel", "brand": "Lukoil", "brand:wikidata": "Q329347", "brand:wikipedia": "en:Lukoil", "name": "Lukoil Akaryak\u0131t \u0130stasyonu", "name:en": "Lukoil Patrol Station", "name:tr": "Lukoil Akaryak\u0131t \u0130stasyonu", "source": "bing"}}, {"type": "node", "id": 9283105748, "lat": 41.0170614, "lon": 28.557399, "tags": {"amenity": "fuel", "brand": "TotalEnergies", "brand:wikidata": "Q154037", "brand:wikipedia": "fr:TotalEnergies", "compressed_air": "yes", "name": "Total Mimarsinan", "source": "bing"}}, {"type": "node", "id": 9283105749, "lat": 41.0172978, "lon": 28.5622313, "tags": {"amenity": "fuel", "brand": "Shell", "brand:wikidata": "Q110716465", "brand:wikipedia": "en:Royal Dutch Shell", "name": "Shell Mimarsinan"}}, {"type": "node", "id": 9283105750, "lat": 41.0185701, "lon": 28.5639545, "tags": {"amenity": "fuel", "brand": "Petrol Ofisi", "brand:wikidata": "Q1278087", "brand:wikipedia": "en:BP", "compressed_air": "yes", "fixme": "check brand, BP in Turkey is acquired by Petrol Ofisi. Don't delete fixme if still BP please.", "name": "Petrol Ofisi", "operator": "Batular Petrol"}}, {"type": "node", "id": 9283105751, "lat": 41.0196623, "lon": 28.5636778, "tags": {"amenity": "fuel", "brand": "Petrol Ofisi", "brand:wikidata": "Q1278087", "compressed_air": "yes", "fixme": "check brand, BP in Turkey is acquired by Petrol Ofisi. Don't delete fixme if still BP please.", "name": "Petrol Ofisi"}}, {"type": "node", "id": 9283105752, "lat": 41.02096, "lon": 28.5631501, "tags": {"amenity": "fuel", "brand": "Opet", "brand:wikidata": "Q7072824", "brand:wikipedia": "en:Opet", "name": "Opet B\u00fcy\u00fck\u00e7ekmece Mimar Sinan", "source": "bing"}}, {"type": "node", "id": 9283105753, "lat": 41.0258567, "lon": 28.5565171, "tags": {"amenity": "fuel", "brand": "Shell", "brand:wikidata": "Q110716465", "brand:wikipedia": "en:Royal Dutch Shell", "compressed_air": "yes", "name": "Shell B\u00fcy\u00fck\u00e7ekmece Ulus"}}, {"type": "node", "id": 9299860551, "lat": 41.0201144, "lon": 28.5593928, "tags": {"amenity": "fuel", "brand": "Petrol Ofisi", "brand:wikidata": "Q1278087", "brand:wikipedia": "en:Petrol Ofisi", "name": "Petrol Ofisi"}}, {"type": "node", "id": 9299860552, "lat": 41.0217351, "lon": 28.5840546, "tags": {"addr:city": "\u0130stanbul", "addr:country": "TR", "addr:district": "B\u00fcy\u00fck\u00e7ekmece", "addr:housenumber": "42", "addr:neighbourhood": "Fat\u0131h Mahallesi", "addr:postcode": "34500", "addr:street": "R\u0131za K\u00fc\u00e7\u00fcko\u011flupa\u015fa Caddesi", "amenity": "fuel", "brand": "Opet", "brand:wikidata": "Q7072824", "brand:wikipedia": "en:Opet", "contact:fax": "+90 212 883 20 72", "contact:phone": "+90 212 883 20 72", "fuel:diesel": "yes", "fuel:lpg": "yes", "name": "Opet B\u00fcy\u00fck\u00e7ekmece Fatih", "operator": "Opet Petrolc\u00fcl\u00fck A.\u015e.", "source": "Yellow Pages T\u00fcrkiye", "website": "https://www.opet.com.tr/"}}, {"type": "node", "id": 9299860553, "lat": 41.0231782, "lon": 28.6188261, "tags": {"amenity": "fuel", "brand": "Kadoil", "brand:wikidata": "Q126901221", "fuel:diesel": "yes", "fuel:lpg": "yes", "fuel:octane_95": "yes", "name": "Kadoil", "operator": "Lipetgaz", "source": "bing"}}, {"type": "node", "id": 9299860557, "lat": 41.016821, "lon": 28.6392375, "tags": {"amenity": "fuel", "brand": "BP", "brand:wikidata": "Q152057", "brand:wikipedia": "en:BP", "fixme": "check brand, BP in Turkey is acquired by Petrol Ofisi. Don't delete fixme if still BP please.", "name": "BP"}}, {"type": "node", "id": 9299860560, "lat": 41.0001016, "lon": 28.6950441, "tags": {"addr:city": "\u0130stanbul", "addr:district": "Esenyurt", "addr:housenumber": "32", "addr:neighbourhood": "Turgut \u00d6zal Mahallesi", "addr:street": "68. Sokak", "amenity": "fuel", "compressed_air": "yes", "name": "T\u00fcrk Petrol", "source": "bing"}}, {"type": "node", "id": 9299860561, "lat": 40.9882554, "lon": 28.7187248, "tags": {"amenity": "fuel", "brand": "Shell", "brand:wikidata": "Q110716465", "brand:wikipedia": "en:Royal Dutch Shell", "name": "Shell Avc\u0131lar", "self_service": "no", "toilets": "yes"}}, {"type": "node", "id": 9299860562, "lat": 40.990692, "lon": 28.7184232, "tags": {"addr:city": "\u0130stanbul", "addr:district": "Avc\u0131lar", "addr:neighbourhood": "\u00dcniversite Mah.", "addr:street": "Televizyon Soka\u011f\u0131", "amenity": "fuel", "brand": "Petrol Ofisi", "brand:wikidata": "Q1278087", "brand:wikipedia": "en:Petrol Ofisi", "name": "Petrol Ofisi"}}, {"type": "node", "id": 9299860563, "lat": 40.9868352, "lon": 28.7699299, "tags": {"amenity": "fuel", "brand": "Shell", "brand:wikidata": "Q110716465", "brand:wikipedia": "en:Royal Dutch Shell", "name": "Shell K\u00fc\u00e7\u00fck\u00e7ekmece"}}, {"type": "node", "id": 9299860564, "lat": 40.9859369, "lon": 28.7839188, "tags": {"amenity": "fuel", "brand": "Petrol Ofisi", "brand:wikidata": "Q1278087", "brand:wikipedia": "en:Petrol Ofisi", "name": "Petrol Ofisi K\u00fc\u00e7\u00fck\u00e7ekmece Cennet", "source": "bing"}}, {"type": "node", "id": 9299860565, "lat": 40.9885513, "lon": 28.7909023, "tags": {"amenity": "fuel", "brand": "BP", "brand:wikidata": "Q152057", "brand:wikipedia": "en:BP", "fixme": "check brand, BP in Turkey is acquired by Petrol Ofisi. Don't delete fixme if still BP please.", "name": "BP K\u00fc\u00e7\u00fck\u00e7ekmece G\u00fcltepe"}}, {"type": "node", "id": 9299860568, "lat": 40.9863951, "lon": 28.8196684, "tags": {"amenity": "fuel", "brand": "Shell", "brand:wikidata": "Q110716465", "brand:wikipedia": "en:Royal Dutch Shell", "compressed_air": "yes", "name": "Shell Atat\u00fcrk Havaliman\u0131", "opening_hours": "24/7", "wheelchair": "yes"}}, {"type": "node", "id": 9299860569, "lat": 41.0164732, "lon": 28.8116205, "tags": {"amenity": "fuel", "brand": "Opet", "brand:wikidata": "Q7072824", "brand:wikipedia": "en:Opet", "layer": "1", "name": "Opet Ceynak Lojistik", "operator": "Ceynak Lojistik"}}, {"type": "node", "id": 9299860570, "lat": 41.0260494, "lon": 28.8141226, "tags": {"amenity": "fuel", "brand": "BP", "brand:wikidata": "Q152057", "brand:wikipedia": "en:BP", "fixme": "check brand, BP in Turkey is acquired by Petrol Ofisi. Don't delete fixme if still BP please.", "name": "BP Ba\u011fc\u0131lar Kirazl\u0131 Ba\u011flar"}}, {"type": "node", "id": 9299860571, "lat": 41.0432544, "lon": 28.8030705, "tags": {"addr:city": "\u0130stanbul", "addr:district": "K\u00fc\u00e7\u00fck\u00e7ekmece", "addr:housenumber": "7", "addr:neighbourhood": "Halkal\u0131 Merkez", "addr:postcode": "34303", "addr:street": "G\u00f6kmen Soka\u011f\u0131", "amenity": "fuel", "brand": "Shell", "brand:wikidata": "Q110716465", "brand:wikipedia": "en:Royal Dutch Shell", "name": "Shell Halkal\u0131", "phone": "+90 212 471 38 38"}}, {"type": "node", "id": 9299860572, "lat": 41.0366263, "lon": 28.7971332, "tags": {"addr:city": "\u0130stanbul", "addr:district": "K\u00fc\u00e7\u00fck\u00e7ekmece", "addr:housenumber": "34/A", "addr:neighbourhood": "Halkal\u0131 Merkez", "addr:postcode": "34303", "addr:street": "Mahmutbey Caddesi", "amenity": "fuel", "brand": "BP", "brand:wikidata": "Q152057", "brand:wikipedia": "en:BP", "fixme": "check brand, BP in Turkey is acquired by Petrol Ofisi. Don't delete fixme if still BP please.", "name": "BP", "phone": "+90 212 693 59 85"}}, {"type": "node", "id": 9299860573, "lat": 41.0336744, "lon": 28.7681455, "tags": {"amenity": "fuel", "brand": "Shell", "brand:wikidata": "Q110716465", "brand:wikipedia": "en:Royal Dutch Shell", "name": "Shell", "source": "bing"}}, {"type": "node", "id": 9299860574, "lat": 41.0426641, "lon": 28.7563563, "tags": {"amenity": "fuel", "source": "bing"}}, {"type": "node", "id": 9312167478, "lat": 41.0033205, "lon": 28.8663906, "tags": {"amenity": "fuel", "brand": "BP", "brand:wikidata": "Q152057", "brand:wikipedia": "en:BP", "fixme": "check brand, BP in Turkey is acquired by Petrol Ofisi. Don't delete fixme if still BP please.", "name": "BP"}}, {"type": "node", "id": 9312167479, "lat": 41.0069657, "lon": 28.8713178, "tags": {"amenity": "fuel", "brand": "Shell", "brand:wikidata": "Q110716465", "brand:wikipedia": "en:Royal Dutch Shell", "name": "Shell"}}, {"type": "node", "id": 9312167481, "lat": 41.002278, "lon": 28.8829966, "tags": {"amenity": "fuel", "brand": "Petrol Ofisi", "brand:wikidata": "Q1278087", "brand:wikipedia": "en:Petrol Ofisi", "name": "Petrol Ofisi Bah\u00e7elievler Mehmet Akif", "operator": "Kavuklar Petrol"}}, {"type": "node", "id": 9312187482, "lat": 40.9725654, "lon": 28.7899492, "tags": {"amenity": "fuel", "brand": "Shell", "brand:wikidata": "Q110716465", "brand:wikipedia": "en:Royal Dutch Shell", "name": "Shell Florya"}}, {"type": "node", "id": 9312187483, "lat": 40.9929402, "lon": 28.793514, "tags": {"amenity": "fuel", "brand": "Opet", "brand:wikidata": "Q7072824", "brand:wikipedia": "en:Opet", "fuel:diesel": "yes", "fuel:e5": "yes", "fuel:lpg": "yes", "fuel:octane_95": "yes", "name": "Opet K\u00fc\u00e7\u00fck\u00e7ekmece G\u00fcltepe", "self_service": "no"}}, {"type": "node", "id": 9312199669, "lat": 41.0151848, "lon": 28.9078086, "tags": {"amenity": "fuel", "brand": "Petrol Ofisi", "brand:wikidata": "Q1278087", "brand:wikipedia": "en:Petrol Ofisi", "compressed_air": "yes", "name": "Petrol Ofisi Zeytinburnu Maltepe"}}, {"type": "node", "id": 9312199670, "lat": 41.0162795, "lon": 28.9116473, "tags": {"amenity": "fuel", "brand": "Opet", "brand:wikidata": "Q7072824", "brand:wikipedia": "en:Opet", "name": "Opet Zeytinburnu Merkezefendi"}}, {"type": "node", "id": 9312199671, "lat": 41.0167833, "lon": 28.9128377, "tags": {"addr:city": "\u0130stanbul", "addr:district": "Zeytinburnu", "addr:housenumber": "5", "addr:neighbourhood": "Maltepe", "addr:postcode": "34010", "addr:street": "Londra Asfalt\u0131 Caddesi", "amenity": "fuel", "branch": "Cevizliba\u011f", "brand": "Shell", "brand:wikidata": "Q110716465", "brand:wikipedia": "en:Royal Dutch Shell", "name": "Shell", "opening_hours": "24/7", "operator": "Cem Otomotiv", "phone": "+90 212 679 6912", "website": "https://find.shell.com/tr/fuel/10054997-cevizlibag/tr_TR"}}, {"type": "node", "id": 9312871375, "lat": 40.9743342, "lon": 28.8740989, "tags": {"amenity": "fuel", "brand": "Shell", "brand:wikidata": "Q110716465", "brand:wikipedia": "en:Royal Dutch Shell", "compressed_air": "yes", "name": "Shell Atak\u00f6y Sahil"}}, {"type": "node", "id": 9312906913, "lat": 41.0383282, "lon": 28.9567532, "tags": {"addr:city": "\u0130stanbul", "addr:country": "TR", "addr:district": "Beyo\u011flu", "addr:housenumber": "13-15", "addr:neighbourhood": "Ke\u00e7eci Piri Mahallesi", "addr:postcode": "34445", "addr:street": "Hask\u00f6y S\u00fctl\u00fcce Yolu Donanma Caddesi", "amenity": "fuel", "brand": "Opet", "brand:wikidata": "Q7072824", "brand:wikipedia": "en:Opet", "compressed_air": "yes", "contact:fax": "+90 2122553697", "contact:phone": "+90 2122547725", "fuel:diesel": "yes", "fuel:lpg": "yes", "name": "Opet Beyo\u011flu", "operator": "Opet Petrolc\u00fcl\u00fck A.\u015e.", "source": "Yellow Pages T\u00fcrkiye", "website": "https://www.opet.com.tr/"}}, {"type": "node", "id": 9548958715, "lat": 40.9954061, "lon": 28.7046971, "tags": {"amenity": "fuel", "brand": "BP", "brand:wikidata": "Q152057", "brand:wikipedia": "en:BP", "fixme": "check brand, BP in Turkey is acquired by Petrol Ofisi. Don't delete fixme if still BP please.", "name": "BP Avc\u0131lar"}}, {"type": "node", "id": 9548958716, "lat": 41.0005436, "lon": 28.6914835, "tags": {"amenity": "fuel", "brand": "Opet", "brand:wikidata": "Q7072824", "brand:wikipedia": "en:Opet", "compressed_air": "yes", "name": "Opet", "source": "bing"}}, {"type": "node", "id": 9548982817, "lat": 41.0093769, "lon": 28.7014502, "tags": {"amenity": "fuel", "brand": "Shell", "brand:wikidata": "Q110716465", "name": "Shell", "source": "bing"}}, {"type": "node", "id": 9548982818, "lat": 41.01155, "lon": 28.698086, "tags": {"amenity": "fuel", "brand": "TotalEnergies", "brand:wikidata": "Q154037", "brand:wikipedia": "fr:TotalEnergies", "compressed_air": "yes", "name": "Total"}}, {"type": "node", "id": 9549151422, "lat": 41.0374652, "lon": 28.9257148, "tags": {"addr:city": "\u0130stanbul", "addr:district": "Ey\u00fcpsultan", "addr:housenumber": "38", "addr:neighbourhood": "Top\u00e7ular", "addr:postcode": "34055", "addr:street": "Ey\u00fcp Sultan Bulvar\u0131", "amenity": "fuel", "branch": "Ey\u00fcpsultan", "brand": "Petrol Ofisi", "brand:wikidata": "Q1278087", "brand:wikipedia": "en:Petrol Ofisi", "name": "Petrol Ofisi", "operator": "Minapet Petrol", "phone": "+90 533 053 5469"}}, {"type": "node", "id": 9549153211, "lat": 41.0395929, "lon": 28.9113175, "tags": {"addr:city": "\u0130stanbul", "addr:district": "Bayrampa\u015fa", "addr:neighbourhood": "Yenido\u011fan", "addr:postcode": "34030", "amenity": "fuel", "branch": "Bayrampa\u015fa", "brand": "Shell", "brand:wikidata": "Q110716465", "name": "Shell", "opening_hours": "24/7", "phone": "+90 212 674 6458", "website": "https://find.shell.com/tr/fuel/10050119-bayrampasa/tr_TR"}}, {"type": "node", "id": 9550991677, "lat": 41.0367809, "lon": 28.8872845, "tags": {"addr:city": "\u0130stanbul", "addr:district": "Esenler", "addr:housenumber": "33", "addr:neighbourhood": "Mimar Sinan", "addr:postcode": "34220", "addr:street": "\u0130stanbul Caddesi", "amenity": "fuel", "branch": "Emre Petrol", "brand": "Opet", "brand:wikidata": "Q7072824", "brand:wikipedia": "en:Opet", "fax": "+90 212 568 8185", "fuel:diesel": "yes", "fuel:lpg": "yes", "name": "Opet", "operator": "Emre Petrol", "phone": "+90 212 611 3063", "source": "Yellow Pages T\u00fcrkiye", "website": "https://www.opet.com.tr/", "wheelchair": "yes"}}, {"type": "node", "id": 9551014699, "lat": 41.0456765, "lon": 28.9313796, "tags": {"addr:city": "\u0130stanbul", "addr:district": "Ey\u00fcpsultan", "addr:housenumber": "77", "addr:neighbourhood": "D\u00fc\u011fmeciler", "addr:postcode": "34055", "addr:street": "Ey\u00fcp Sultan Bulvar\u0131", "amenity": "fuel", "branch": "Ey\u00fcpsultan D\u00fc\u011fmeciler", "brand": "Opet", "brand:wikidata": "Q7072824", "brand:wikipedia": "en:Opet", "fax": "+90 212 576 6560", "name": "Opet", "operator": "\u00d6zta\u015f Petrol", "phone": "+90 212 674 2674"}}, {"type": "node", "id": 9809647732, "lat": 41.0348065, "lon": 28.7668233, "tags": {"amenity": "fuel", "brand": "Opet", "brand:wikidata": "Q7072824", "name": "Opet"}}, {"type": "node", "id": 9809647745, "lat": 41.0145162, "lon": 28.768116, "tags": {"amenity": "fuel", "brand": "Petrol Ofisi", "brand:wikidata": "Q1278087", "name": "Petrol Ofisi"}}, {"type": "node", "id": 10310472766, "lat": 41.011561, "lon": 28.679358, "tags": {"addr:city": "\u0130stanbul", "addr:district": "Esenyurt", "addr:neighbourhood": "Zafer", "addr:postcode": "34513", "amenity": "fuel", "branch": "Esenyurt Nam\u0131k Kemal", "brand": "Petrol Ofisi", "brand:wikidata": "Q1278087", "name": "Petrol Ofisi", "opening_hours": "24/7", "operator": "Ba\u015fak Petrol"}}, {"type": "node", "id": 10923543911, "lat": 41.0059156, "lon": 28.6596976, "tags": {"amenity": "fuel"}}, {"type": "node", "id": 11127294727, "lat": 41.0166336, "lon": 28.9550416, "tags": {"addr:city": "\u0130stanbul", "addr:district": "Fatih", "addr:housenumber": "8-10", "addr:neighbourhood": "Zeyrek Mahallesi", "addr:postcode": "34083", "addr:street": "Kovac\u0131lar Soka\u011f\u0131", "amenity": "fuel", "branch": "Fatih \u0130stanbul", "brand": "Shell", "brand:wikidata": "Q110716465", "name": "Shell", "opening_hours": "24/7", "phone": "+90 212 635 9188", "website": "https://find.shell.com/tr/fuel/10049471-fatih-istanbul/tr_TR"}}, {"type": "node", "id": 11232727522, "lat": 41.0191556, "lon": 28.9178318, "tags": {"addr:city": "\u0130stanbul", "addr:district": "Zeytinburnu", "addr:neighbourhood": "Maltepe", "addr:postcode": "34010", "amenity": "fuel", "brand": "Opet", "brand:wikidata": "Q7072824", "name": "Opet", "operator": "Fildi\u015fi Petrol"}}, {"type": "node", "id": 11251039127, "lat": 41.0195398, "lon": 28.6294897, "tags": {"amenity": "fuel", "brand": "Petrol Ofisi", "brand:wikidata": "Q1278087", "name": "Petrol Ofisi"}}, {"type": "node", "id": 11405572353, "lat": 41.014193, "lon": 28.8420492, "tags": {"amenity": "fuel", "brand": "BP", "brand:wikidata": "Q152057", "fixme": "check brand, BP in Turkey is acquired by Petrol Ofisi. Don't delete fixme if still BP please.", "name": "BP"}}, {"type": "node", "id": 11409079450, "lat": 41.0037021, "lon": 28.9499428, "tags": {"addr:city": "\u0130stanbul", "addr:district": "Fatih", "addr:housenumber": "80", "addr:neighbourhood": "Aksaray", "addr:postcode": "34096", "addr:street": "Nam\u0131k Kemal Caddesi", "amenity": "fuel", "branch": "Yenikap\u0131", "brand": "Opet", "brand:wikidata": "Q7072824", "fax": "+90 212 529 0591", "name": "Opet", "opening_hours": "24/7", "operator": "\u0130stanbul Enerji", "phone": "+90 212 529 1109"}}, {"type": "node", "id": 11586204358, "lat": 40.9912822, "lon": 28.9195654, "tags": {"addr:city": "\u0130stanbul", "addr:district": "Zeytinburnu", "addr:housenumber": "1", "addr:neighbourhood": "Kazl\u0131\u00e7e\u015fme", "addr:postcode": "34020", "addr:street": "Gen\u00e7 Osman Soka\u011f\u0131", "amenity": "fuel", "branch": "Yedikule", "brand": "BP", "brand:wikidata": "Q152057", "fixme": "check brand, BP in Turkey is acquired by Petrol Ofisi. Don't delete fixme if still BP please.", "name": "BP", "opening_hours": "24/7", "operator": "Kazdallar Petrol", "phone": "+90 212 582 6944"}}, {"type": "node", "id": 11586204359, "lat": 41.0022429, "lon": 28.9198623, "tags": {"addr:city": "\u0130stanbul", "addr:district": "Zeytinburnu", "addr:housenumber": "43", "addr:neighbourhood": "Kazl\u0131\u00e7e\u015fme", "addr:postcode": "34020", "addr:street": "10. Y\u0131l Caddesi", "amenity": "fuel", "branch": "Zeytinburnu Merkez", "brand": "Shell", "brand:wikidata": "Q110716465", "name": "Shell", "opening_hours": "24/7", "phone": "+90 212 546 8483", "website": "https://find.shell.com/tr/fuel/10048825-zeytinburnu-merkez/tr_TR"}}, {"type": "node", "id": 11586204363, "lat": 41.028186, "lon": 28.899395, "tags": {"addr:city": "\u0130stanbul", "addr:district": "Bayrampa\u015fa", "addr:neighbourhood": "Terazidere", "addr:postcode": "34035", "amenity": "fuel", "branch": "Davutpa\u015fa Altyol", "brand": "Shell", "brand:wikidata": "Q110716465", "layer": "1", "name": "Shell", "opening_hours": "24/7", "phone": "+90 212 493 1700", "shop": "fuel", "website": "https://find.shell.com/tr/fuel/10049371-davutpasa-altyol"}}, {"type": "node", "id": 11586204364, "lat": 41.0280911, "lon": 28.9007152, "tags": {"addr:city": "\u0130stanbul", "addr:district": "Bayrampa\u015fa", "addr:neighbourhood": "Terazidere", "addr:postcode": "34035", "amenity": "fuel", "branch": "Davutpa\u015fa \u00dcstyol", "brand": "Shell", "brand:wikidata": "Q110716465", "name": "Shell", "opening_hours": "24/7", "operator": "Shell", "phone": "+90 212 493 1600", "shop": "fuel", "website": "https://find.shell.com/tr/fuel/10049373-davutpasa-ustyol"}}, {"type": "node", "id": 11586204367, "lat": 41.0340694, "lon": 28.8969993, "tags": {"addr:city": "\u0130stanbul", "addr:district": "Bayrampa\u015fa", "addr:neighbourhood": "Terazidere", "addr:postcode": "34035", "amenity": "fuel", "branch": "Otogar \u0130stanbul", "brand": "Shell", "brand:wikidata": "Q110716465", "name": "Shell", "opening_hours": "24/7", "phone": "+90 212 501 69 42", "website": "https://find.shell.com/tr/fuel/10050070-otogar-istanbul/tr_TR"}}, {"type": "node", "id": 11586243850, "lat": 41.030962, "lon": 28.814632, "tags": {"addr:city": "\u0130stanbul", "addr:district": "Ba\u011fc\u0131lar", "addr:housenumber": "3", "addr:neighbourhood": "15 Temmuz", "addr:postcode": "34212", "addr:street": "G\u00fclbahar Caddesi", "amenity": "fuel", "branch": "G\u00fcne\u015fli METRO", "brand": "BP", "brand:wikidata": "Q152057", "fixme": "check brand, BP in Turkey is acquired by Petrol Ofisi. Don't delete fixme if still BP please.", "name": "BP", "opening_hours": "24/7", "operator": "Akceylan Petrol", "phone": "+90 212 550 7256"}}, {"type": "node", "id": 11586251541, "lat": 41.0244923, "lon": 28.8283443, "tags": {"addr:city": "\u0130stanbul", "addr:district": "Ba\u011fc\u0131lar", "addr:street": "Atat\u00fcrk Caddesi", "amenity": "fuel", "brand": "BP", "brand:wikidata": "Q152057", "brand:wikipedia": "en:BP", "fixme": "check brand, BP in Turkey is acquired by Petrol Ofisi. Don't delete fixme if still BP please.", "name": "BP", "name:ar": "\u0645\u062d\u0637\u0629 BP \u0644\u0644\u0648\u0642\u0648\u062f", "source": "microsoft/BuildingFootprints", "wheelchair": "limited"}}, {"type": "node", "id": 11586254469, "lat": 41.0365006, "lon": 28.8937404, "tags": {"addr:city": "\u0130stanbul", "addr:district": "Bayrampa\u015fa", "addr:neighbourhood": "Alt\u0131ntepsi", "addr:postcode": "34035", "amenity": "fuel", "branch": "Otogar G\u00fcney", "brand": "Petrol Ofisi", "brand:wikidata": "Q1278087", "name": "Petrol Ofisi", "operator": "Petrol Ofisi"}}, {"type": "node", "id": 11586254470, "lat": 41.0426227, "lon": 28.8959656, "tags": {"addr:city": "\u0130stanbul", "addr:district": "Bayrampa\u015fa", "addr:neighbourhood": "Alt\u0131ntepsi", "addr:postcode": "34035", "amenity": "fuel", "branch": "Otogar Kuzey", "brand": "Petrol Ofisi", "brand:wikidata": "Q1278087", "name": "Petrol Ofisi", "opening_hours": "24/7", "operator": "Petrol Ofisi"}}, {"type": "node", "id": 11586254471, "lat": 41.0405545, "lon": 28.9117371, "tags": {"addr:city": "\u0130stanbul", "addr:district": "Bayrampa\u015fa", "addr:housenumber": "4", "addr:neighbourhood": "\u0130smet Pa\u015fa", "addr:postcode": "34040", "addr:street": "\u0130smet Pa\u015fa Caddesi", "amenity": "fuel", "branch": "Sa\u011fmalc\u0131lar", "brand": "Petrol Ofisi", "brand:wikidata": "Q1278087", "name": "Petrol Ofisi", "opening_hours": "24/7", "operator": "Kongu Petrol", "phone": "+90 542 487 7103"}}, {"type": "node", "id": 11586794393, "lat": 41.0296484, "lon": 28.8668127, "tags": {"addr:city": "\u0130stanbul", "addr:district": "Ba\u011fc\u0131lar", "addr:street": "5.sokak", "amenity": "fuel", "brand": "Petrol Ofisi", "brand:wikidata": "Q1278087", "brand:wikipedia": "en:Petrol Ofisi", "name": "Petrol Ofisi", "name:ar": "\u063a\u0627\u0632\u064a\u0629"}}, {"type": "node", "id": 11586797677, "lat": 41.0391741, "lon": 28.9173024, "tags": {"addr:city": "\u0130stanbul", "addr:district": "Ey\u00fcpsultan", "addr:housenumber": "2", "addr:neighbourhood": "Top\u00e7ular", "addr:postcode": "34055", "addr:street": "Ferhatpa\u015fa Caddesi", "amenity": "fuel", "branch": "Ey\u00fcpsultan", "brand": "BP", "brand:wikidata": "Q152057", "fixme": "check brand, BP in Turkey is acquired by Petrol Ofisi. Don't delete fixme if still BP please.", "name": "BP", "opening_hours": "24/7", "operator": "Enes Akaryak\u0131t", "phone": "+90 212 493 2575"}}, {"type": "node", "id": 11586797679, "lat": 41.0386246, "lon": 28.9217428, "tags": {"addr:city": "\u0130stanbul", "addr:district": "Ey\u00fcpsultan", "addr:housenumber": "35", "addr:neighbourhood": "Top\u00e7ular", "addr:postcode": "34055", "addr:street": "Rami K\u0131\u015fla Caddesi", "amenity": "fuel", "branch": "Ey\u00fcpsultan Top\u00e7ular", "brand": "Petrol Ofisi", "brand:wikidata": "Q1278087", "name": "Petrol Ofisi", "opening_hours": "24/7", "operator": "Tu\u011fal Kollektif \u015eirketi Mustafa Onur ve Ortaklar\u0131", "phone": "+90 555 963 1673"}}, {"type": "node", "id": 11586797681, "lat": 41.0416669, "lon": 28.9199626, "tags": {"addr:city": "\u0130stanbul", "addr:district": "Ey\u00fcpsultan", "addr:housenumber": "66", "addr:neighbourhood": "Top\u00e7ular", "addr:postcode": "34055", "addr:street": "Rami K\u0131\u015fla Caddesi", "amenity": "fuel", "branch": "Top\u00e7ular", "brand": "T\u00fcrkiye Petrolleri", "brand:wikidata": "Q15946806", "name": "T\u00fcrkiye Petrolleri", "opening_hours": "24/7", "operator": "Merense Petrol"}}, {"type": "node", "id": 11586797684, "lat": 41.04616, "lon": 28.9154492, "tags": {"addr:city": "\u0130stanbul", "addr:district": "Bayrampa\u015fa", "addr:housenumber": "89", "addr:neighbourhood": "Yenido\u011fan", "addr:postcode": "34030", "addr:street": "Rami K\u0131\u015fla Caddesi", "amenity": "fuel", "branch": "Top\u00e7ular", "brand": "BP", "brand:wikidata": "Q152057", "fixme": "check brand, BP in Turkey is acquired by Petrol Ofisi. Don't delete fixme if still BP please.", "name": "BP", "opening_hours": "24/7", "phone": "+90 212 544 2472"}}, {"type": "node", "id": 11586843989, "lat": 41.0501035, "lon": 28.8998117, "tags": {"addr:city": "\u0130stanbul", "addr:district": "Bayrampa\u015fa", "addr:housenumber": "3", "addr:neighbourhood": "Kocatepe", "addr:postcode": "34045", "addr:street": "50. Y\u0131l Caddesi", "amenity": "fuel", "branch": "Yavuz", "brand": "BP", "brand:wikidata": "Q152057", "fixme": "check brand, BP in Turkey is acquired by Petrol Ofisi. Don't delete fixme if still BP please.", "name": "BP", "opening_hours": "24/7", "phone": "+90 212 640 0480"}}, {"type": "node", "id": 11586944901, "lat": 41.051054, "lon": 28.9076389, "tags": {"addr:city": "\u0130stanbul", "addr:district": "Bayrampa\u015fa", "addr:housenumber": "18", "addr:neighbourhood": "Muratpa\u015fa", "addr:postcode": "34040", "addr:street": "Fabrikalar Caddesi", "amenity": "fuel", "branch": "Bayrampa\u015fa Muratpa\u015fa", "brand": "Opet", "brand:wikidata": "Q7072824", "fax": "+90 212 578 5260", "name": "Opet", "opening_hours": "24/7", "operator": "\u0130shako\u011flu Petrol", "phone": "+90 850 455 6565"}}, {"type": "node", "id": 11594829628, "lat": 40.9963146, "lon": 28.7966461, "tags": {"amenity": "fuel", "brand": "Shell", "brand:wikidata": "Q110716465", "name": "Shell Sefak\u00f6y"}}, {"type": "node", "id": 11597376277, "lat": 41.0010194, "lon": 28.6181483, "tags": {"amenity": "fuel", "brand": "BP", "brand:wikidata": "Q152057", "fixme": "check brand, BP in Turkey is acquired by Petrol Ofisi. Don't delete fixme if still BP please.", "name": "BP", "operator": "Veysi Gen\u00e7 Akaryak\u0131t"}}, {"type": "node", "id": 11597376278, "lat": 41.0058414, "lon": 28.6223911, "tags": {"addr:city": "\u0130stanbul", "addr:district": "Beylikd\u00fcz\u00fc", "addr:housenumber": "94", "addr:neighbourhood": "Adnan Kahveci", "addr:postcode": "34528", "addr:street": "Avrupa Caddesi", "amenity": "fuel", "branch": "G\u00fcrp\u0131nar Merkez Mahallesi", "brand": "Shell", "brand:wikidata": "Q110716465", "name": "Shell", "opening_hours": "24/7", "phone": "+90 212 856 2019", "website": "https://find.shell.com/tr/fuel/12688373-gurpinar-merkez-mahallesi/tr_TR"}}, {"type": "node", "id": 11597376279, "lat": 41.0163417, "lon": 28.6259075, "tags": {"addr:city": "\u0130stanbul", "addr:district": "B\u00fcy\u00fck\u00e7ekmece", "addr:neighbourhood": "P\u0131nartepe", "addr:postcode": "34500", "addr:street": "Yavuz Sultan Selim Bulvar\u0131", "amenity": "fuel", "branch": "B\u00fcy\u00fck\u00e7ekmece P\u0131nartepe", "brand": "Opet", "brand:wikidata": "Q7072824", "fax": "+90 212 871 2425", "name": "Opet", "opening_hours": "24/7", "operator": "Cob Petrol", "phone": "+90 212 871 2325"}}, {"type": "node", "id": 11597376320, "lat": 41.0189519, "lon": 28.6311127, "tags": {"addr:city": "\u0130stanbul", "addr:district": "B\u00fcy\u00fck\u00e7ekmece", "addr:housenumber": "372", "addr:neighbourhood": "Cumhuriyet", "addr:postcode": "34536", "amenity": "fuel", "branch": "B\u00fcy\u00fck\u00e7ekmece Cumhuriyet", "brand": "Opet", "brand:wikidata": "Q7072824", "fax": "+90 212 872 1128", "name": "Opet", "opening_hours": "24/7", "operator": "Renk Petrol", "phone": "+90 212 872 1035"}}, {"type": "node", "id": 11597376321, "lat": 41.0199328, "lon": 28.6316143, "tags": {"addr:city": "\u0130stanbul", "addr:district": "Esenyurt", "addr:housenumber": "8", "addr:neighbourhood": "G\u00f6kevler", "addr:postcode": "34516", "addr:street": "2312. Sokak", "amenity": "fuel", "branch": "Esenyurt E-5 Yanyol", "brand": "Petrol Ofisi", "brand:wikidata": "Q1278087", "name": "Petrol Ofisi", "opening_hours": "24/7", "operator": "Esenpet Petrol"}}, {"type": "node", "id": 11597376322, "lat": 41.009743, "lon": 28.6550438, "tags": {"addr:city": "\u0130stanbul", "addr:district": "Beylikd\u00fcz\u00fc", "addr:housenumber": "34", "addr:neighbourhood": "Bar\u0131\u015f", "addr:postcode": "34520", "addr:street": "Belediye Caddesi", "amenity": "fuel", "branch": "Beylikd\u00fcz\u00fc Yanyol", "brand": "Shell", "brand:wikidata": "Q110716465", "name": "Shell", "opening_hours": "24/7", "phone": "+90 212 854 1717", "website": "https://find.shell.com/tr/fuel/10054979-beylikduzu-yan-yol/tr_TR"}}, {"type": "node", "id": 11597376324, "lat": 41.0293532, "lon": 28.6825976, "tags": {"addr:city": "\u0130stanbul", "addr:district": "Esenyurt", "addr:housenumber": "107", "addr:neighbourhood": "Fatih", "addr:postcode": "34513", "addr:street": "Do\u011fan Arasl\u0131 Bulvar\u0131", "amenity": "fuel", "branch": "Esenyurt Fatih", "brand": "Aytemiz", "brand:wikidata": "Q62274352", "name": "Aytemiz", "opening_hours": "24/7", "operator": "Esenyurt Petrol", "phone": "+90 541 507 5201"}}, {"type": "node", "id": 11597376325, "lat": 41.0321617, "lon": 28.6819427, "tags": {"amenity": "fuel", "brand": "Shell", "brand:wikidata": "Q110716465", "name": "Shell", "opening_hours": "24/7"}}, {"type": "node", "id": 11597376326, "lat": 41.0319562, "lon": 28.674315, "tags": {"addr:city": "\u0130stanbul", "addr:district": "Esenyurt", "addr:neighbourhood": "Ba\u011flar\u00e7e\u015fme", "addr:postcode": "34517", "amenity": "fuel", "branch": "Esenyurt 2. B\u00f6lge", "brand": "Shell", "brand:wikidata": "Q110716465", "name": "Shell", "opening_hours": "24/7", "phone": "+90 212 620 3686", "website": "https://find.shell.com/tr/fuel/10049437-esenyurt-2-bolge/tr_TR"}}, {"type": "node", "id": 11597376328, "lat": 41.0510066, "lon": 28.6877366, "tags": {"addr:city": "\u0130stanbul", "addr:district": "Esenyurt", "addr:housenumber": "14", "addr:neighbourhood": "Ye\u015filkent", "addr:postcode": "34515", "addr:street": "Bah\u00e7e\u015fehir Yanyol Caddesi", "amenity": "fuel", "branch": "Anafarta Petrol", "brand": "Opet", "brand:wikidata": "Q7072824", "fax": "+90 212 699 0771", "name": "Opet", "opening_hours": "24/7", "operator": "Anafarta Petrol", "phone": "+90 212 699 0770"}}, {"type": "node", "id": 12205869388, "lat": 40.9815951, "lon": 28.884321, "tags": {"amenity": "fuel", "brand": "Petrol Ofisi", "brand:wikidata": "Q1278087", "name": "Petrol Ofisi"}}, {"type": "node", "id": 12240988991, "lat": 41.0456035, "lon": 28.9167149}, {"type": "node", "id": 12250404051, "lat": 40.9969726, "lon": 28.8716266, "tags": {"addr:city": "\u0130stanbul", "addr:district": "Bak\u0131rk\u00f6y", "addr:housenumber": "31", "addr:neighbourhood": "Kartaltepe", "addr:postcode": "34145", "addr:street": "Pembe Ay Soka\u011f\u0131", "amenity": "fuel", "branch": "\u0130ncirli", "brand": "TotalEnergies", "brand:wikidata": "Q154037", "name": "Total", "opening_hours": "24/7"}}, {"type": "node", "id": 12250435536, "lat": 40.9740305, "lon": 28.8731698, "tags": {"addr:city": "\u0130stanbul", "addr:district": "Bak\u0131rk\u00f6y", "addr:housenumber": "8/5", "addr:neighbourhood": "Atak\u00f6y 1. K\u0131s\u0131m", "addr:postcode": "34158", "addr:street": "Rauf Orbay Caddesi", "amenity": "fuel", "branch": "Sahil Yolu", "brand": "Opet", "brand:wikidata": "Q7072824", "contact:fax": "+90 212 560 7271", "contact:phone": "+90 212 560 3931", "name": "Opet", "opening_hours": "24/7", "operator": "Atak\u00f6y Petrol", "toilets:wheelchair": "yes"}}, {"type": "node", "id": 12405696020, "lat": 41.0454508, "lon": 28.9166725}, {"type": "node", "id": 12405696021, "lat": 41.0453267, "lon": 28.9166473}, {"type": "node", "id": 12405696022, "lat": 41.0452473, "lon": 28.9166406}, {"type": "node", "id": 12405696023, "lat": 41.0451739, "lon": 28.9166467}, {"type": "node", "id": 12405696024, "lat": 41.0450976, "lon": 28.9166896}, {"type": "node", "id": 12405696025, "lat": 41.0449381, "lon": 28.9168243}, {"type": "node", "id": 12405696026, "lat": 41.0453879, "lon": 28.917399}, {"type": "node", "id": 12405696027, "lat": 41.0457454, "lon": 28.9168344}, {"type": "node", "id": 12405696028, "lat": 41.0450409, "lon": 28.916961}, {"type": "node", "id": 12626078358, "lat": 40.9824878, "lon": 28.6821356}, {"type": "node", "id": 12626078359, "lat": 40.9815128, "lon": 28.6823192}, {"type": "node", "id": 12626078360, "lat": 40.9815222, "lon": 28.6824728}, {"type": "node", "id": 12626078361, "lat": 40.9814927, "lon": 28.6825368}, {"type": "node", "id": 12626078362, "lat": 40.981598, "lon": 28.6827129}, {"type": "node", "id": 12626078363, "lat": 40.9823957, "lon": 28.6825982}, {"type": "node", "id": 12732942276, "lat": 41.0494997, "lon": 28.8200149}, {"type": "node", "id": 12732942277, "lat": 41.0492249, "lon": 28.8205087}, {"type": "node", "id": 12732942278, "lat": 41.0495488, "lon": 28.8210025}, {"type": "node", "id": 12732942279, "lat": 41.0497816, "lon": 28.8205417}, {"type": "node", "id": 12732942280, "lat": 41.0497911, "lon": 28.8205053}, {"type": "node", "id": 12732942281, "lat": 41.0497924, "lon": 28.8204622}, {"type": "node", "id": 12732942282, "lat": 41.0497841, "lon": 28.8204098}, {"type": "node", "id": 12732942283, "lat": 41.0497414, "lon": 28.8203193}, {"type": "node", "id": 12732942299, "lat": 41.0494048, "lon": 28.8207809}, {"type": "node", "id": 12732942300, "lat": 41.0494805, "lon": 28.8208979}, {"type": "way", "id": 554699358, "nodes": [5353052167, 5353052168, 5353052169, 5353052170, 5353052171, 5353052172, 5353052167], "tags": {"amenity": "fuel", "brand": "Petrol Ofisi", "brand:wikidata": "Q1278087", "building": "yes", "name": "Petrol Ofisi"}}, {"type": "way", "id": 1341105372, "nodes": [12240988991, 12405696020, 12405696021, 12405696022, 12405696023, 12405696024, 12405696025, 12405696028, 12405696026, 12405696027, 12240988991], "tags": {"addr:city": "\u0130stanbul", "addr:district": "Ey\u00fcpsultan", "addr:neighbourhood": "Rami Cuma", "addr:postcode": "34055", "amenity": "fuel", "branch": "Rami", "brand": "Shell", "brand:wikidata": "Q110716465", "name": "Shell", "opening_hours": "24/7", "operator": "G\u00f6kku\u015fa\u011f\u0131 Petrol", "phone": "+90 212 613 36 05", "self_service": "no", "website": "https://find.shell.com/tr/fuel/12475913-rami/tr_TR", "wheelchair": "yes"}}, {"type": "way", "id": 1363626790, "nodes": [12626078358, 12626078359, 12626078360, 12626078361, 12626078362, 12626078363, 12626078358], "tags": {"amenity": "fuel", "brand": "TotalEnergies", "brand:wikidata": "Q154037", "name": "TotalEnergies"}}, {"type": "way", "id": 1375210243, "nodes": [12732942276, 12732942277, 12732942299, 12732942300, 12732942278, 12732942279, 12732942280, 12732942281, 12732942282, 12732942283, 12732942276], "tags": {"addr:city": "\u0130stanbul", "addr:district": "Ba\u011fc\u0131lar", "addr:housenumber": "92", "addr:neighbourhood": "Mahmutbey", "addr:postcode": "34218", "addr:street": "Peyami Safa Caddesi", "amenity": "fuel", "branch": "Ba\u011fc\u0131lar", "brand": "Shell", "brand:wikidata": "Q110716465", "name": "Shell", "opening_hours": "24/7", "phone": "+90 533 304 69 23", "website": "https://find.shell.com/tr/fuel/12771275-bagcilar/tr_TR"}}]}