{"version": 0.6, "generator": "Overpass API 0.7.62.10 2d4cfc48", "osm3s": {"timestamp_osm_base": "2026-03-06T11:55:52Z", "copyright": "The data included in this document is from www.openstreetmap.org. The data is made available under ODbL."}, "elements": [{"type": "node", "id": 266753132, "lat": 40.8968375, "lon": 29.2249513, "tags": {"addr:city": "\u0130stanbul", "addr:district": "Pendik", "addr:housenumber": "2", "addr:neighbourhood": "Ye\u015filba\u011flar Mahallesi", "addr:street": "D100 Bulvar\u0131", "amenity": "fuel", "branch": "Pendik", "brand": "Aytemiz", "brand:wikidata": "Q62274352", "name": "Aytemiz", "operator": "Shell"}}, {"type": "node", "id": 269367213, "lat": 41.0260804, "lon": 28.9797859, "tags": {"amenity": "fuel", "brand": "Opet", "brand:wikidata": "Q7072824", "name": "Opet", "name:ar": "\u0623\u0644\u0628\u0650\u062a", "operator": "Alpet"}}, {"type": "node", "id": 278335431, "lat": 41.0288378, "lon": 29.0174396, "tags": {"amenity": "fuel", "brand": "Petrol Ofisi", "brand:wikidata": "Q1278087", "compressed_air": "yes", "name": "Petrol Ofisi", "opening_hours": "Mo-Su,PH 00:00-00:00"}}, {"type": "node", "id": 552869782, "lat": 40.9989931, "lon": 29.1549337, "tags": {"amenity": "fuel", "brand": "Shell", "brand:wikidata": "Q110716465", "brand:wikipedia": "en:Royal Dutch Shell", "name": "Shell"}}, {"type": "node", "id": 772439779, "lat": 41.0050371, "lon": 29.0307907, "tags": {"amenity": "fuel", "brand": "Shell", "brand:wikidata": "Q110716465", "brand:wikipedia": "en:Royal Dutch Shell", "name": "Shell Baban Petrol"}}, {"type": "node", "id": 1632509666, "lat": 41.0367187, "lon": 29.0655832}, {"type": "node", "id": 1670461592, "lat": 40.9876439, "lon": 29.087031, "tags": {"amenity": "fuel", "brand": "TotalEnergies", "brand:wikidata": "Q154037", "brand:wikipedia": "fr:TotalEnergies", "name": "Total", "name:ar": "\u0645\u062d\u0637\u0629 \u062a\u0648\u062a\u0627\u0644 \u0644\u0644\u0648\u0642\u0648\u062f"}}, {"type": "node", "id": 1705108267, "lat": 40.8619926, "lon": 29.3875044, "tags": {"amenity": "fuel"}}, {"type": "node", "id": 1705380902, "lat": 40.8733759, "lon": 29.4081536, "tags": {"amenity": "fuel"}}, {"type": "node", "id": 1713488174, "lat": 40.9783258, "lon": 29.1235487, "tags": {"amenity": "fuel", "brand": "Opet", "brand:wikidata": "Q7072824", "brand:wikipedia": "en:Opet", "name": "Opet"}}, {"type": "node", "id": 1755203245, "lat": 40.9835054, "lon": 29.0919078, "tags": {"amenity": "fuel", "brand": "TotalEnergies", "brand:wikidata": "Q154037", "brand:wikipedia": "fr:Total \u00c9nergies", "name": "Total"}}, {"type": "node", "id": 1905650685, "lat": 40.8815155, "lon": 29.2403352, "tags": {"amenity": "fuel", "brand": "Opet", "brand:wikidata": "Q7072824", "brand:wikipedia": "en:Opet", "name": "Opet"}}, {"type": "node", "id": 1905900747, "lat": 40.8756773, "lon": 29.2328762, "tags": {"amenity": "fuel", "brand": "Shell", "brand:wikidata": "Q110716465", "brand:wikipedia": "en:Royal Dutch Shell", "name": "Shell"}}, {"type": "node", "id": 1907466158, "lat": 40.8988275, "lon": 29.3692152, "tags": {"addr:city": "\u0130stanbul", "addr:district": "Tuzla", "addr:housenumber": "9", "addr:street": "Demokrasi Caddesi", "amenity": "fuel", "branch": "Feba Petrol Tuzla", "brand": "T\u00fcrkiye Petrolleri", "brand:wikidata": "Q15946806", "name": "T\u00fcrkiye Petrolleri"}}, {"type": "node", "id": 1907466259, "lat": 40.9085841, "lon": 29.3609713, "tags": {"amenity": "fuel", "brand": "T\u00fcrkiye Petrolleri", "brand:wikidata": "Q15946806", "name": "T\u00fcrkiye Petrolleri"}}, {"type": "node", "id": 1913379075, "lat": 40.8657172, "lon": 29.3783242, "tags": {"amenity": "fuel", "brand": "BP", "brand:wikidata": "Q152057", "brand:wikipedia": "en:BP", "fixme": "check brand, BP in Turkey is acquired by Petrol Ofisi. Don't delete fixme if still BP please.", "name": "BP", "name:tr": "Class"}}, {"type": "node", "id": 2257504633, "lat": 40.9676174, "lon": 29.1026273, "tags": {"amenity": "fuel", "brand": "Aytemiz", "brand:wikidata": "Q62274352", "name": "Aytemiz"}}, {"type": "node", "id": 2257505250, "lat": 40.9664225, "lon": 29.1033193, "tags": {"amenity": "fuel", "brand": "BP", "brand:wikidata": "Q152057", "brand:wikipedia": "en:BP", "name": "BP", "name:en": "BP GAS STATION", "name:tr": "BP AKARYAKIT"}}, {"type": "node", "id": 2257506320, "lat": 40.966139, "lon": 29.1047838, "tags": {"amenity": "fuel", "brand": "TotalEnergies", "brand:wikidata": "Q154037", "brand:wikipedia": "fr:TotalEnergies", "name": "Total"}}, {"type": "node", "id": 2264750239, "lat": 41.0370814, "lon": 29.1556729, "tags": {"amenity": "fuel", "brand": "Shell", "brand:wikidata": "Q110716465", "brand:wikipedia": "en:Royal Dutch Shell", "name": "Shell"}}, {"type": "node", "id": 2342422499, "lat": 41.035031, "lon": 28.9937099}, {"type": "node", "id": 2342422502, "lat": 41.0350195, "lon": 28.9935564}, {"type": "node", "id": 2342422510, "lat": 41.0351259, "lon": 28.9933188}, {"type": "node", "id": 2342422517, "lat": 41.0351815, "lon": 28.9933598}, {"type": "node", "id": 2342422540, "lat": 41.0353851, "lon": 28.9940789}, {"type": "node", "id": 2342422551, "lat": 41.0355188, "lon": 28.993686}, {"type": "node", "id": 2342422555, "lat": 41.0355618, "lon": 28.9937259}, {"type": "node", "id": 2363493667, "lat": 40.8358408, "lon": 29.323905, "tags": {"amenity": "fuel"}}, {"type": "node", "id": 2384495345, "lat": 41.0226057, "lon": 29.0751993}, {"type": "node", "id": 2384495346, "lat": 41.0224587, "lon": 29.0752112}, {"type": "node", "id": 2384495347, "lat": 41.0224713, "lon": 29.0754843}, {"type": "node", "id": 2384495348, "lat": 41.0226183, "lon": 29.0754724}, {"type": "node", "id": 2392986716, "lat": 41.0156405, "lon": 29.074591, "tags": {"amenity": "fuel", "brand": "Opet", "brand:wikidata": "Q7072824", "building": "yes", "compressed_air": "yes", "name": "Opet", "wheelchair": "yes"}}, {"type": "node", "id": 2392986717, "lat": 41.0167626, "lon": 29.0760902, "tags": {"amenity": "fuel", "brand": "Shell", "brand:wikidata": "Q110716465", "brand:wikipedia": "en:Royal Dutch Shell", "building": "yes", "compressed_air": "yes", "name": "Shell", "opening_hours": "24/7", "wheelchair": "limited"}}, {"type": "node", "id": 2610629148, "lat": 40.8868524, "lon": 29.2399111, "tags": {"amenity": "fuel", "brand": "Shell", "brand:wikidata": "Q110716465", "brand:wikipedia": "en:Royal Dutch Shell", "name": "Shell", "name:tr": "Shell"}}, {"type": "node", "id": 2793721859, "lat": 40.9429725, "lon": 29.3732861}, {"type": "node", "id": 2793721861, "lat": 40.9431566, "lon": 29.3738629}, {"type": "node", "id": 2793721862, "lat": 40.9426213, "lon": 29.3742189}, {"type": "node", "id": 2999419474, "lat": 40.97084, "lon": 29.083573, "tags": {"amenity": "fuel", "branch": "Erenk\u00f6y", "brand": "Shell", "brand:wikidata": "Q110716465", "brand:wikipedia": "en:Royal Dutch Shell", "name": "Shell"}}, {"type": "node", "id": 3678063462, "lat": 40.9994717, "lon": 29.18153}, {"type": "node", "id": 3678063463, "lat": 40.9993467, "lon": 29.1814423}, {"type": "node", "id": 3678063464, "lat": 40.9992684, "lon": 29.1816382}, {"type": "node", "id": 3678063465, "lat": 40.9992038, "lon": 29.1815928}, {"type": "node", "id": 3678063466, "lat": 40.9991708, "lon": 29.1816752}, {"type": "node", "id": 3678063467, "lat": 40.9993605, "lon": 29.1818083}, {"type": "node", "id": 3728846486, "lat": 41.0446779, "lon": 28.9783544, "tags": {"amenity": "fuel", "name": "Kurtulu\u015f Total", "opening_hours": "24/7", "wheelchair": "yes"}}, {"type": "node", "id": 3955643614, "lat": 40.937381, "lon": 29.1410698, "tags": {"amenity": "fuel", "branch": "Z\u00fcmr\u00fctevler", "brand": "Shell", "brand:wikidata": "Q110716465", "brand:wikipedia": "en:Royal Dutch Shell", "name": "Shell"}}, {"type": "node", "id": 4068422886, "lat": 40.9314439, "lon": 29.1286546}, {"type": "node", "id": 4068422887, "lat": 40.9313151, "lon": 29.1287354}, {"type": "node", "id": 4068422888, "lat": 40.9313816, "lon": 29.1289213}, {"type": "node", "id": 4068446089, "lat": 40.9315105, "lon": 29.1288405}, {"type": "node", "id": 4309080389, "lat": 40.893878, "lon": 29.3550994, "tags": {"addr:housenumber": "38", "addr:street": "demokrasi caddesi", "amenity": "fuel", "brand": "Petrol Ofisi", "brand:wikidata": "Q1278087", "brand:wikipedia": "en:Petrol Ofisi", "internet_access": "wlan", "name": "Petrol Ofisi", "opening_hours": "24/7", "operator": "Petropark"}}, {"type": "node", "id": 4416266553, "lat": 41.0085765, "lon": 29.2016649, "tags": {"amenity": "fuel", "brand": "Petrol Ofisi", "brand:wikidata": "Q1278087", "brand:wikipedia": "en:Petrol Ofisi", "name": "Petrol Ofisi"}}, {"type": "node", "id": 4419028247, "lat": 41.0337252, "lon": 28.9758177, "tags": {"addr:city": "\u0130stanbul", "addr:housenumber": "34", "addr:postcode": "34435", "addr:street": "Me\u015frutiyet Caddesi", "amenity": "fuel", "brand": "Occidental", "brand:wikidata": "Q15148996", "description": "Boutique hotels in Istanbul City Center, Beyoglu.", "internet_access": "yes", "internet_access:fee": "no", "name": "occidental pees hotel Istanbul", "operator": "Room Mate", "smoking": "no", "stars": "4", "tourism": "hotel", "website": "https://room-matehotels.com/en/kerem/", "wheelchair": "limited"}}, {"type": "node", "id": 4442145256, "lat": 40.8811477, "lon": 29.2553456, "tags": {"amenity": "fuel", "brand": "Opet", "brand:wikidata": "Q7072824", "brand:wikipedia": "en:Opet", "name": "Opet"}}, {"type": "node", "id": 4553844241, "lat": 41.0329163, "lon": 29.110542}, {"type": "node", "id": 4580488790, "lat": 40.8892845, "lon": 29.1811831, "tags": {"amenity": "fuel", "branch": "Kartal", "brand": "Shell", "brand:wikidata": "Q110716465", "brand:wikipedia": "en:Royal Dutch Shell", "name": "Shell", "phone": "+90 216 353 24 18"}}, {"type": "node", "id": 4699018047, "lat": 40.9612, "lon": 29.282842, "tags": {"addr:city": "\u0130stanbul", "addr:country": "TR", "addr:district": "Sultanbeyli", "addr:housenumber": "221", "addr:neighbourhood": "Turgut Reis Mahallesi", "addr:postcode": "34930", "addr:street": "Demokrasi Caddesi", "amenity": "fuel", "brand": "Opet", "brand:wikidata": "Q7072824", "brand:wikipedia": "en:Opet", "contact:fax": "+90 2164194242", "contact:phone": "+90 2163984764", "fuel:diesel": "yes", "fuel:lpg": "yes", "name": "Opet Sultanbeyli", "operator": "Opet Petrolc\u00fcl\u00fck A.\u015e.", "source": "Yellow Pages T\u00fcrkiye", "website": "https://www.opet.com.tr/"}}, {"type": "node", "id": 4699018050, "lat": 40.9093711, "lon": 29.2951636, "tags": {"addr:city": "\u0130stanbul", "addr:country": "TR", "addr:district": "Pendik", "addr:housenumber": "275", "addr:neighbourhood": "Kurtk\u00f6y Mahallesi", "addr:postcode": "34912", "addr:street": "Ankara Caddesi", "amenity": "fuel", "brand": "Opet", "brand:wikidata": "Q7072824", "brand:wikipedia": "en:Opet", "contact:fax": "+90 2165951087", "contact:phone": "+90 2165951085", "fuel:diesel": "yes", "fuel:lpg": "yes", "name": "Opet Pendik", "operator": "Opet Petrolc\u00fcl\u00fck A.\u015e.", "source": "Yellow Pages T\u00fcrkiye", "website": "https://www.opet.com.tr/"}}, {"type": "node", "id": 4699018077, "lat": 41.0112488, "lon": 29.0752818, "tags": {"addr:city": "\u0130stanbul", "addr:country": "TR", "addr:district": "\u00dcsk\u00fcdar", "addr:housenumber": "43", "addr:neighbourhood": "Bulgurlu Mahallesi", "addr:postcode": "34696", "addr:street": "Libadiye Caddesi", "amenity": "fuel", "brand": "Petrol Ofisi", "brand:wikidata": "Q1278087", "brand:wikipedia": "en:Petrol Ofisi", "compressed_air": "yes", "contact:fax": "+90 2163284441", "contact:phone": "+90 5302429181", "fuel:diesel": "yes", "fuel:lpg": "yes", "fuel:octane_95": "yes", "name": "Petrol Ofisi", "operator": "Petrol Ofisi", "payment:cash": "yes", "payment:credit_cards": "yes", "payment:debit_cards": "yes", "website": "https://www.petrolofisi.com.tr/"}}, {"type": "node", "id": 4699018205, "lat": 41.041235, "lon": 28.967225, "tags": {"addr:city": "\u0130stanbul", "addr:country": "TR", "addr:district": "Beyo\u011flu", "addr:housenumber": "20/A", "addr:neighbourhood": "\u0130stiklal Mahallesi", "addr:postcode": "34440", "addr:street": "Piyale Pa\u015fa Bulvar\u0131", "amenity": "fuel", "brand": "Opet", "brand:wikidata": "Q7072824", "brand:wikipedia": "tr:Opet", "contact:fax": "+90 2122530118", "contact:phone": "+90 2122560547", "fuel:diesel": "yes", "fuel:lpg": "yes", "name": "Opet Beyo\u011flu", "operator": "Opet Petrolc\u00fcl\u00fck A.\u015e.", "source": "Yellow Pages T\u00fcrkiye", "website": "https://www.opet.com.tr/"}}, {"type": "node", "id": 4699018213, "lat": 40.9076681, "lon": 29.3433329, "tags": {"addr:city": "\u0130stanbul", "addr:country": "TR", "addr:district": "Tuzla", "addr:housenumber": "85/A", "addr:neighbourhood": "Orhanl\u0131 Mahallesi", "addr:postcode": "34956", "addr:street": "Fettah Ba\u015faran Caddesi", "amenity": "fuel", "brand": "Opet", "brand:wikidata": "Q7072824", "brand:wikipedia": "tr:Opet", "contact:fax": "+90 2163945620", "contact:phone": "+90 2163945615", "fuel:diesel": "yes", "fuel:lpg": "yes", "name": "Opet Tuzla", "operator": "Opet Petrolc\u00fcl\u00fck A.\u015e.", "source": "Yellow Pages T\u00fcrkiye", "website": "https://www.opet.com.tr/"}}, {"type": "node", "id": 4699018229, "lat": 41.0225022, "lon": 29.1159204, "tags": {"addr:city": "\u0130stanbul", "addr:country": "TR", "addr:district": "\u00dcmraniye", "addr:housenumber": "175", "addr:neighbourhood": "\u0130nk\u0131lap Mahallesi", "addr:postcode": "34768", "addr:street": "Alemda\u011f Caddesi", "amenity": "fuel", "brand": "Opet", "brand:wikidata": "Q7072824", "brand:wikipedia": "en:Opet", "compressed_air": "yes", "contact:fax": "+90 2166302205", "contact:phone": "+90 2166302200", "fuel:diesel": "yes", "fuel:lpg": "yes", "name": "Opet \u00dcmraniye", "name:tr": "Opet Bengi", "opening_hours": "Mo-Su,PH 00:00-00:00", "operator": "Opet Petrolc\u00fcl\u00fck A.\u015e.", "source": "Yellow Pages T\u00fcrkiye", "website": "https://www.opet.com.tr/"}}, {"type": "node", "id": 4699018235, "lat": 40.9053415, "lon": 29.2853766, "tags": {"addr:city": "\u0130stanbul", "addr:country": "TR", "addr:district": "Pendik", "addr:housenumber": "4", "addr:neighbourhood": "\u015eeyhli Mahallesi", "addr:postcode": "34906", "addr:street": "Ankara Caddesi", "amenity": "fuel", "branch": "\u015eeyhli", "brand": "Shell", "brand:wikidata": "Q110716465", "brand:wikipedia": "en:Royal Dutch Shell", "compressed_air": "yes", "contact:fax": "+90 2163780526", "contact:phone": "+90 2163785900", "fuel:diesel": "yes", "fuel:lpg": "yes", "name": "Shell", "opening_hours": "Mo-Su,PH 08:00+", "website": "https://www.shell.com.tr/", "wheelchair": "limited"}}, {"type": "node", "id": 4699018244, "lat": 41.00829, "lon": 29.02304, "tags": {"addr:city": "\u0130stanbul", "addr:country": "TR", "addr:district": "\u00dcsk\u00fcdar", "addr:housenumber": "10", "addr:neighbourhood": "Selimiye Mahallesi", "addr:postcode": "34668", "addr:street": "T\u0131bbiye Caddesi At\u00f6lyeler Sokak", "amenity": "fuel", "brand": "Petrol Ofisi", "brand:wikidata": "Q1278087", "brand:wikipedia": "en:Petrol Ofisi", "compressed_air": "yes", "contact:phone": "+90 2163107452", "fuel:diesel": "yes", "fuel:euro_diesel": "yes", "fuel:lpg": "yes", "name": "Petrol Ofisi", "operator": "Opet Petrolc\u00fcl\u00fck A.\u015e.", "source": "Yellow Pages T\u00fcrkiye", "website": "https://www.opet.com.tr/"}}, {"type": "node", "id": 4699018247, "lat": 40.881089, "lon": 29.2323267, "tags": {"addr:city": "\u0130stanbul", "addr:country": "TR", "addr:district": "Pendik", "addr:housenumber": "14", "addr:neighbourhood": "Yeni Mahalle Mahallesi", "addr:postcode": "34893", "addr:street": "Abdulhalik Renda Caddesi", "amenity": "fuel", "brand": "Opet", "brand:wikidata": "Q7072824", "brand:wikipedia": "en:Royal Dutch Shell", "check_date": "2024-09-07", "fuel:diesel": "yes", "fuel:lpg": "yes", "name": "Opet"}}, {"type": "node", "id": 4699018248, "lat": 40.891269, "lon": 29.17731, "tags": {"addr:city": "\u0130stanbul", "addr:country": "TR", "addr:district": "Kartal", "addr:housenumber": "55", "addr:neighbourhood": "Petroli\u015f Mahallesi", "addr:postcode": "34862", "addr:street": "\u00dcsk\u00fcdar Caddesi", "amenity": "fuel", "brand": "Petrol Ofisi", "brand:wikidata": "Q1278087", "contact:fax": "+90 2163873468", "contact:phone": "+90 2163068306", "fuel:diesel": "yes", "fuel:lpg": "yes", "name": "Petrol Ofisi", "website": "https://www.petrolofisi.com.tr/"}}, {"type": "node", "id": 4699018282, "lat": 40.912108, "lon": 29.191968, "tags": {"addr:city": "\u0130stanbul", "addr:country": "TR", "addr:district": "Kartal", "addr:housenumber": "27", "addr:neighbourhood": "Esentepe Mahallesi", "addr:postcode": "34870", "addr:street": "D-100 Yanyol Caddesi", "amenity": "fuel", "brand": "Opet", "brand:wikidata": "Q7072824", "brand:wikipedia": "tr:Opet", "contact:fax": "+90 2163897250", "contact:phone": "+90 2163897252", "fuel:diesel": "yes", "fuel:lpg": "yes", "name": "Opet Kartal", "operator": "Opet Petrolc\u00fcl\u00fck A.\u015e.", "source": "Yellow Pages T\u00fcrkiye", "website": "https://www.opet.com.tr/"}}, {"type": "node", "id": 4699018428, "lat": 40.9067741, "lon": 29.2527557, "tags": {"addr:city": "\u0130stanbul", "addr:country": "TR", "addr:district": "Pendik", "addr:housenumber": "81", "addr:neighbourhood": "Velibaba Mahallesi", "addr:postcode": "34896", "addr:street": "Yakac\u0131k Caddesi", "amenity": "fuel", "brand": "Petrol Ofisi", "brand:wikidata": "Q1278087", "compressed_air": "yes", "contact:fax": "+90 2163078182", "contact:phone": "+90 2163078181", "fuel:diesel": "yes", "fuel:lpg": "yes", "name": "Petrol Ofisi", "operator": "Opet Petrolc\u00fcl\u00fck A.\u015e.", "source": "Yellow Pages T\u00fcrkiye", "website": "https://www.opet.com.tr/"}}, {"type": "node", "id": 4699018459, "lat": 40.8712321, "lon": 29.3819844, "tags": {"addr:city": "Kocaeli", "addr:country": "TR", "addr:district": "\u00c7ay\u0131rova", "addr:housenumber": "13", "addr:neighbourhood": "Cumhuriyet Mahallesi", "addr:postcode": "41420", "addr:street": "\u00d6zg\u00fcrl\u00fck Caddesi", "amenity": "fuel", "brand": "Opet", "brand:wikidata": "Q7072824", "brand:wikipedia": "tr:Opet", "contact:fax": "+90 2626583105", "contact:phone": "+90 5339358343", "fuel:diesel": "yes", "fuel:lpg": "yes", "name": "Opet \u00c7ay\u0131rova", "operator": "Opet Petrolc\u00fcl\u00fck A.\u015e.", "source": "Yellow Pages T\u00fcrkiye", "website": "https://www.opet.com.tr/"}}, {"type": "node", "id": 4699018488, "lat": 40.9426842, "lon": 29.1438714, "tags": {"addr:city": "\u0130stanbul", "addr:country": "TR", "addr:district": "Maltepe", "addr:housenumber": "2", "addr:neighbourhood": "Girne Mahallesi", "addr:postcode": "34852", "addr:street": "Narl\u0131dere Caddesi", "amenity": "fuel", "brand": "Opet", "brand:wikidata": "Q7072824", "brand:wikipedia": "en:Opet", "contact:fax": "+90 2164573676", "contact:phone": "+90 2164573670", "fuel:diesel": "yes", "fuel:lpg": "yes", "name": "Opet Maltepe", "name:tr": "onur dis tic 065", "operator": "Opet Petrolc\u00fcl\u00fck A.\u015e.", "source": "Yellow Pages T\u00fcrkiye", "website": "https://www.opet.com.tr/"}}, {"type": "node", "id": 4699018918, "lat": 40.7960875, "lon": 29.4019107, "tags": {"addr:city": "Kocaeli", "addr:country": "TR", "addr:district": "Gebze", "addr:housenumber": "281", "addr:neighbourhood": "K\u00f6\u015fkl\u00fc \u00c7e\u015fme Mahallesi", "addr:postcode": "41400", "addr:street": "Yeni Ba\u011fdat Caddesi", "amenity": "fuel", "brand": "Opet", "brand:wikidata": "Q7072824", "brand:wikipedia": "tr:Opet", "contact:fax": "+90 2626000040", "contact:phone": "+90 2627770029", "fuel:diesel": "yes", "fuel:lpg": "yes", "name": "Opet", "operator": "Opet Petrolc\u00fcl\u00fck A.\u015e.", "source": "Yellow Pages T\u00fcrkiye", "website": "https://www.opet.com.tr/"}}, {"type": "node", "id": 4699018987, "lat": 40.804895, "lon": 29.367133, "tags": {"addr:city": "Kocaeli", "addr:country": "TR", "addr:district": "Gebze", "addr:housenumber": "10", "addr:neighbourhood": "Cumhuriyet Mahallesi", "addr:postcode": "41400", "addr:street": "2252. Sokak", "amenity": "fuel", "brand": "Opet", "brand:wikidata": "Q7072824", "brand:wikipedia": "tr:Opet", "contact:fax": "+90 2626531643", "contact:phone": "+90 2626531644", "fuel:diesel": "yes", "fuel:lpg": "yes", "name": "Opet Gebze", "name:tr": "Opet Gebze sa\u011flam", "operator": "Opet Petrolc\u00fcl\u00fck A.\u015e.", "source": "Yellow Pages T\u00fcrkiye", "website": "https://www.opet.com.tr/"}}, {"type": "node", "id": 4699019354, "lat": 41.048424, "lon": 28.984989, "tags": {"addr:city": "\u0130stanbul", "addr:country": "TR", "addr:district": "\u015ei\u015fli", "addr:housenumber": "197", "addr:neighbourhood": "Bozkurt Mahallesi", "addr:place": "1. B\u00f6lge Bozkurt Mah.", "addr:postcode": "34375", "addr:street": "Dolapdere Caddesi", "amenity": "fuel", "brand": "Opet", "brand:wikidata": "Q7072824", "brand:wikipedia": "tr:Opet", "contact:fax": "+90 2122914648", "contact:phone": "+90 2122913020", "fuel:diesel": "yes", "fuel:lpg": "yes", "name": "Opet", "operator": "Opet", "source": "Yellow Pages T\u00fcrkiye", "website": "https://www.opet.com.tr/"}}, {"type": "node", "id": 4699019360, "lat": 41.0079553, "lon": 29.2016636, "tags": {"addr:city": "\u0130stanbul", "addr:country": "TR", "addr:district": "Sancaktepe", "addr:housenumber": "18", "addr:neighbourhood": "Sar\u0131gazi Mahallesi", "addr:postcode": "34785", "addr:street": "Atat\u00fcrk Caddesi", "amenity": "fuel", "brand": "Opet", "brand:wikidata": "Q7072824", "brand:wikipedia": "en:Opet", "contact:fax": "+90 2166225767", "contact:phone": "+90 2166225757", "fuel:diesel": "yes", "fuel:lpg": "yes", "name": "Opet \u00dcmraniye", "operator": "Opet Petrolc\u00fcl\u00fck A.\u015e.", "source": "Yellow Pages T\u00fcrkiye", "website": "https://www.opet.com.tr/"}}, {"type": "node", "id": 4699019373, "lat": 40.8051175, "lon": 29.4334382, "tags": {"addr:city": "Kocaeli", "addr:country": "TR", "addr:district": "Gebze", "addr:housenumber": "22", "addr:neighbourhood": "G\u00fczeller Mahallesi", "addr:postcode": "41400", "addr:street": "Do\u011fan Caddesi", "amenity": "fuel", "brand": "Opet", "brand:wikidata": "Q7072824", "brand:wikipedia": "tr:Opet", "contact:fax": "+90 2627770028", "contact:phone": "+90 2627770010", "fuel:diesel": "yes", "fuel:lpg": "yes", "name": "Opet", "operator": "Opet Petrolc\u00fcl\u00fck A.\u015e.", "source": "Yellow Pages T\u00fcrkiye", "website": "https://www.opet.com.tr/"}}, {"type": "node", "id": 4699019379, "lat": 40.982402, "lon": 29.106104, "tags": {"addr:city": "\u0130stanbul", "addr:country": "TR", "addr:district": "Ata\u015fehir", "addr:housenumber": "1", "addr:neighbourhood": "K\u00fc\u00e7\u00fckbakkalk\u00f6y Mahallesi", "addr:postcode": "34750", "addr:street": "Merdivenk\u00f6y Yolu Caddesi", "amenity": "fuel", "brand": "Opet", "brand:wikidata": "Q7072824", "brand:wikipedia": "en:Opet", "contact:fax": "+90 2165726346", "contact:phone": "+90 2165732222", "fuel:diesel": "yes", "fuel:lpg": "yes", "name": "Opet Ata\u015fehir", "name:tr": "bozok petrol 044", "operator": "Opet Petrolc\u00fcl\u00fck A.\u015e.", "source": "Yellow Pages T\u00fcrkiye", "website": "https://www.opet.com.tr/", "wheelchair": "limited"}}, {"type": "node", "id": 4699019947, "lat": 40.9015949, "lon": 29.2470027, "tags": {"addr:city": "\u0130stanbul", "addr:country": "TR", "addr:district": "Pendik", "addr:housenumber": "60", "addr:neighbourhood": "\u00c7\u0131nardere Mahallesi", "addr:postcode": "34896", "addr:street": "Olimpiyat Caddesi", "amenity": "fuel", "brand": "Opet", "brand:wikidata": "Q7072824", "brand:wikipedia": "tr:Opet", "contact:fax": "+90 2163534498", "contact:phone": "+90 2163872727", "fuel:diesel": "yes", "fuel:lpg": "yes", "name": "Opet Pendik", "operator": "Opet Petrolc\u00fcl\u00fck A.\u015e.", "panoramax": "9533badd-6bd5-497c-841c-077fa1d48884", "source": "Yellow Pages T\u00fcrkiye", "website": "https://www.opet.com.tr/"}}, {"type": "node", "id": 4699019968, "lat": 40.895696, "lon": 29.2490574, "tags": {"addr:city": "\u0130stanbul", "addr:country": "TR", "addr:district": "Pendik", "addr:housenumber": "53 D: 1", "addr:neighbourhood": "\u00c7\u0131nardere Mahallesi", "addr:postcode": "34896", "addr:street": "Ankara Caddesi", "amenity": "fuel", "brand": "Opet", "brand:wikidata": "Q7072824", "brand:wikipedia": "en:Opet", "contact:fax": "+90 2163799178", "contact:phone": "+90 2163799177", "fuel:diesel": "yes", "fuel:lpg": "yes", "name": "Opet", "operator": "Opet Petrolc\u00fcl\u00fck A.\u015e.", "source": "Yellow Pages T\u00fcrkiye", "website": "https://www.opet.com.tr/"}}, {"type": "node", "id": 4699019969, "lat": 40.866335, "lon": 29.3348073, "tags": {"addr:city": "\u0130stanbul", "addr:country": "TR", "addr:district": "Tuzla", "addr:housenumber": "56", "addr:neighbourhood": "Ayd\u0131nl\u0131 Mahallesi", "addr:postcode": "34953", "addr:street": "Ayd\u0131n Yolu Caddesi", "amenity": "fuel", "brand": "Opet", "brand:wikidata": "Q7072824", "brand:wikipedia": "en:Opet", "contact:fax": "+90 2163933857", "contact:phone": "+90 2163933856", "fuel:diesel": "yes", "fuel:lpg": "yes", "name": "Opet Tuzla", "name:tr": "Opet Tuzla mirap", "operator": "Opet Petrolc\u00fcl\u00fck A.\u015e.", "source": "Yellow Pages T\u00fcrkiye", "website": "https://www.opet.com.tr/"}}, {"type": "node", "id": 4699020197, "lat": 40.871794, "lon": 29.371641, "tags": {"addr:city": "\u0130stanbul", "addr:country": "TR", "addr:district": "Tuzla", "addr:housenumber": "D: 40", "addr:neighbourhood": "Deri OSB Mahallesi", "addr:postcode": "34956", "addr:street": "Kumpas Caddesi", "amenity": "fuel", "brand:wikidata": "Q7072824", "brand:wikipedia": "tr:Opet", "contact:fax": "+90 2165043922", "contact:phone": "+90 2165043919", "fuel:diesel": "yes", "fuel:lpg": "yes", "name": "Opet Tuzla", "operator": "Opet Petrolc\u00fcl\u00fck A.\u015e.", "source": "Yellow Pages T\u00fcrkiye", "website": "https://www.opet.com.tr/"}}, {"type": "node", "id": 4699020285, "lat": 40.8374032, "lon": 29.2960611, "tags": {"addr:city": "\u0130stanbul", "addr:country": "TR", "addr:district": "Tuzla", "addr:housenumber": "51/A", "addr:neighbourhood": "Evliya \u00c7elebi Mahallesi", "addr:postcode": "34944", "addr:street": "Rauf Orbay Caddesi", "amenity": "fuel", "brand": "Opet", "brand:wikidata": "Q7072824", "brand:wikipedia": "en:Opet", "contact:fax": "+90 2164474848", "contact:phone": "+90 2164474849", "fuel:diesel": "yes", "fuel:lpg": "yes", "name": "Opet Tuzla", "operator": "Opet Petrolc\u00fcl\u00fck A.\u015e.", "source": "Yellow Pages T\u00fcrkiye", "website": "https://www.opet.com.tr/"}}, {"type": "node", "id": 4699020956, "lat": 40.792489, "lon": 29.375008, "tags": {"addr:city": "Kocaeli", "addr:country": "TR", "addr:district": "Dar\u0131ca", "addr:housenumber": "158", "addr:neighbourhood": "Osmangazi Mahallesi", "addr:postcode": "41700", "addr:street": "A\u015f\u0131ro\u011flu Caddesi", "amenity": "fuel", "brand": "Opet", "brand:wikidata": "Q7072824", "brand:wikipedia": "tr:Opet", "contact:fax": "+90 2626535477", "contact:phone": "+90 2626540400", "fuel:diesel": "yes", "fuel:lpg": "yes", "name": "Opet", "operator": "Opet Petrolc\u00fcl\u00fck A.\u015e.", "source": "Yellow Pages T\u00fcrkiye", "website": "https://www.opet.com.tr/"}}, {"type": "node", "id": 4699022949, "lat": 40.9681282, "lon": 29.2531294, "tags": {"addr:city": "\u0130stanbul", "addr:country": "TR", "addr:district": "Sultanbeyli", "addr:housenumber": "64", "addr:neighbourhood": "Hasanpa\u015fa Mahallesi", "addr:postcode": "34920", "addr:street": "Fatih Bulvar\u0131", "amenity": "fuel", "brand": "Opet", "brand:wikidata": "Q7072824", "brand:wikipedia": "en:Opet", "contact:fax": "+90 2163986511", "contact:phone": "+90 2163986232", "fuel:diesel": "yes", "fuel:lpg": "yes", "name": "Opet Sultanbeyli", "name:tr": "\u00dc\u00e7 Karde\u015fler 191", "operator": "Opet Petrolc\u00fcl\u00fck A.\u015e.", "website": "https://www.opet.com.tr/"}}, {"type": "node", "id": 4699022950, "lat": 40.9104, "lon": 29.211534, "tags": {"addr:city": "\u0130stanbul", "addr:country": "TR", "addr:district": "Kartal", "addr:housenumber": "8", "addr:neighbourhood": "Orta Mahallesi", "addr:postcode": "34880", "addr:street": "Yaln\u0131z Selvi Caddesi", "amenity": "fuel", "brand": "Opet", "brand:wikidata": "Q7072824", "brand:wikipedia": "tr:Opet", "contact:fax": "+90 2163774435", "contact:phone": "+90 2163774405", "fuel:diesel": "yes", "fuel:lpg": "yes", "name": "Opet Kartal", "operator": "Opet Petrolc\u00fcl\u00fck A.\u015e.", "source": "Yellow Pages T\u00fcrkiye", "website": "https://www.opet.com.tr/"}}, {"type": "node", "id": 4699022951, "lat": 40.98387, "lon": 29.165959, "tags": {"addr:city": "\u0130stanbul", "addr:country": "TR", "addr:district": "Ata\u015fehir", "addr:housenumber": "1 D: 3", "addr:neighbourhood": "K\u00fc\u00e7\u00fckbakkalk\u00f6y Mahallesi", "addr:postcode": "34750", "addr:street": "\u00dcsk\u00fcdar Caddesi", "amenity": "fuel", "brand": "Opet", "brand:wikidata": "Q7072824", "brand:wikipedia": "tr:Opet", "compressed_air": "yes", "contact:fax": "+90 2166600010", "contact:phone": "+90 2166601222", "fuel:diesel": "yes", "fuel:lpg": "yes", "name": "Opet \u00dcmraniye", "operator": "Opet Petrolc\u00fcl\u00fck A.\u015e.", "source": "Yellow Pages T\u00fcrkiye", "website": "https://www.opet.com.tr/"}}, {"type": "node", "id": 4699022952, "lat": 40.859498, "lon": 29.2815455, "tags": {"addr:city": "\u0130stanbul", "addr:country": "TR", "addr:district": "Pendik", "addr:housenumber": "2", "addr:neighbourhood": "G\u00fczelyal\u0131 Mahallesi", "addr:postcode": "34903", "addr:street": "\u0130brahim Hakk\u0131 Caddesi", "amenity": "fuel", "brand": "Opet", "brand:wikidata": "Q7072824", "brand:wikipedia": "en:Opet", "contact:phone": "+90 2163785900", "fuel:diesel": "yes", "fuel:euro_diesel": "yes", "fuel:lpg": "yes", "name": "Opet Pendik", "operator": "Opet Petrolc\u00fcl\u00fck A.\u015e.", "source": "Yellow Pages T\u00fcrkiye", "website": "https://www.opet.com.tr/"}}, {"type": "node", "id": 4699022953, "lat": 40.987731, "lon": 29.143805, "tags": {"addr:city": "\u0130stanbul", "addr:country": "TR", "addr:district": "Ata\u015fehir", "addr:housenumber": "30", "addr:neighbourhood": "Kay\u0131\u015fda\u011f\u0131 Mahallesi", "addr:postcode": "34755", "addr:street": "Dudullu Caddesi", "amenity": "fuel", "brand": "Opet", "brand:wikidata": "Q7072824", "brand:wikipedia": "en:Opet", "contact:phone": "+90 2165266077", "fuel:diesel": "yes", "fuel:euro_diesel": "yes", "fuel:lpg": "yes", "name": "Opet Ata\u015fehir", "operator": "Opet Petrolc\u00fcl\u00fck A.\u015e.", "source": "Yellow Pages T\u00fcrkiye", "website": "https://www.opet.com.tr/"}}, {"type": "node", "id": 4699022962, "lat": 41.031458, "lon": 29.079681, "tags": {"addr:city": "\u0130stanbul", "addr:country": "TR", "addr:district": "\u00dcsk\u00fcdar", "addr:housenumber": "59", "addr:neighbourhood": "Ferah Mahallesi", "addr:postcode": "34692", "addr:street": "Bosna Bulvar\u0131", "amenity": "fuel", "brand": "Opet", "brand:wikidata": "Q7072824", "brand:wikipedia": "tr:Opet", "contact:fax": "+90 2164434818", "contact:phone": "+90 2164434898", "fuel:diesel": "yes", "fuel:lpg": "yes", "name": "Opet", "operator": "Opet Petrolc\u00fcl\u00fck A.\u015e.", "source": "Yellow Pages T\u00fcrkiye", "website": "https://www.opet.com.tr/"}}, {"type": "node", "id": 4699022965, "lat": 40.883978, "lon": 29.349287, "tags": {"addr:city": "\u0130stanbul", "addr:country": "TR", "addr:district": "Tuzla", "addr:housenumber": "9", "addr:neighbourhood": "Mescit Mahallesi", "addr:postcode": "34956", "addr:street": "Atat\u00fcrk Caddesi", "amenity": "fuel", "brand": "Opet", "brand:wikidata": "Q7072824", "brand:wikipedia": "en:Opet", "contact:fax": "+90 2163945412", "contact:phone": "+90 2163945410", "fuel:diesel": "yes", "fuel:lpg": "yes", "name": "Opet Tuzla", "operator": "Opet Petrolc\u00fcl\u00fck A.\u015e.", "source": "Yellow Pages T\u00fcrkiye", "website": "https://www.opet.com.tr/"}}, {"type": "node", "id": 4699022966, "lat": 40.9266858, "lon": 29.3175598, "tags": {"addr:city": "\u0130stanbul", "addr:country": "TR", "addr:district": "Pendik", "addr:housenumber": "172", "addr:neighbourhood": "Harmandere Mahallesi", "addr:place": "Kurtk\u00f6y", "addr:postcode": "34912", "addr:street": "Yeni Ankara Caddesi", "amenity": "fuel", "brand": "Shell", "brand:wikidata": "Q110716465", "contact:fax": "+90 2164826365", "contact:phone": "+90 2164826364", "fuel:diesel": "yes", "fuel:lpg": "yes", "fuel:octane_95": "yes", "name": "Shell Sabiha G\u00f6k\u00e7en", "opening_hours": "24/7", "operator": "Shell T\u00fcrkiye", "self_service": "no", "source": "Yellow Pages T\u00fcrkiye", "website": "https://www.shell.com.tr/"}}, {"type": "node", "id": 4699022970, "lat": 41.008467, "lon": 29.2159064, "tags": {"addr:city": "\u0130stanbul", "addr:country": "TR", "addr:district": "Sancaktepe", "addr:housenumber": "145", "addr:neighbourhood": "\u0130n\u00f6n\u00fc Mahallesi", "addr:postcode": "34785", "addr:street": "Atat\u00fcrk Caddesi", "amenity": "fuel", "brand": "Opet", "brand:wikidata": "Q7072824", "brand:wikipedia": "en:Opet", "compressed_air": "yes", "contact:fax": "+90 2166209632", "contact:phone": "+90 2166218682", "fuel:diesel": "yes", "fuel:lpg": "yes", "name": "Opet \u00dcmraniye", "operator": "Opet Petrolc\u00fcl\u00fck A.\u015e.", "source": "Yellow Pages T\u00fcrkiye", "website": "https://www.opet.com.tr/", "wheelchair": "yes"}}, {"type": "node", "id": 4699022975, "lat": 40.891373, "lon": 29.233194, "tags": {"addr:city": "\u0130stanbul", "addr:country": "TR", "addr:district": "Pendik", "addr:housenumber": "32", "addr:neighbourhood": "Bah\u00e7elievler Mahallesi", "addr:postcode": "34893", "addr:street": "D-100 G\u00fcney Yanyolu", "amenity": "fuel", "brand": "Opet", "brand:wikidata": "Q7072824", "brand:wikipedia": "en:Opet", "contact:fax": "+90 2163543392", "contact:phone": "+90 2163543390", "fuel:diesel": "yes", "fuel:lpg": "yes", "name": "Opet Pendik", "operator": "Opet Petrolc\u00fcl\u00fck A.\u015e.", "source": "Yellow Pages T\u00fcrkiye", "website": "https://www.opet.com.tr/"}}, {"type": "node", "id": 4699023892, "lat": 41.007237, "lon": 29.244293, "tags": {"addr:city": "\u0130stanbul", "addr:country": "TR", "addr:district": "Sancaktepe", "addr:housenumber": "1", "addr:neighbourhood": "Merve Mahallesi", "addr:place": "Yenido\u011fan", "addr:postcode": "34791", "addr:street": "M\u00fcbacir Caddesi", "amenity": "fuel", "brand": "Opet", "brand:wikidata": "Q7072824", "brand:wikipedia": "en:Opet", "contact:fax": "+90 2165614300", "contact:phone": "+90 2165614312", "fuel:diesel": "yes", "fuel:lpg": "yes", "name": "Opet Sancaktepe", "name:tr": "Opet Sancaktepe", "operator": "Opet Petrolc\u00fcl\u00fck A.\u015e.", "source": "Yellow Pages T\u00fcrkiye", "website": "https://www.opet.com.tr/"}}, {"type": "node", "id": 4699023905, "lat": 40.9776, "lon": 29.2206066, "tags": {"addr:city": "\u0130stanbul", "addr:country": "TR", "addr:district": "Sancaktepe", "addr:housenumber": "1", "addr:neighbourhood": "Ey\u00fcp Sultan Mahallesi", "addr:postcode": "34885", "addr:street": "Yakac\u0131k Caddesi", "amenity": "fuel", "brand": "Opet", "brand:wikidata": "Q7072824", "brand:wikipedia": "en:Opet", "contact:fax": "+90 2165614986", "contact:phone": "+90 2165614980", "fuel:diesel": "yes", "fuel:lpg": "yes", "name": "Opet Sancaktepe", "operator": "Opet Petrolc\u00fcl\u00fck A.\u015e.", "source": "Yellow Pages T\u00fcrkiye", "website": "https://www.opet.com.tr/"}}, {"type": "node", "id": 4699023914, "lat": 40.990082, "lon": 29.263793, "tags": {"addr:city": "\u0130stanbul", "addr:country": "TR", "addr:district": "Sultanbeyli", "addr:housenumber": "4", "addr:neighbourhood": "Battalgazi Mahallesi", "addr:postcode": "34935", "addr:street": "Mimar Sinan Caddesi", "amenity": "fuel", "brand": "Opet", "brand:wikidata": "Q7072824", "brand:wikipedia": "tr:Opet", "contact:fax": "+90 2165926987", "contact:phone": "+90 2165926252", "fuel:diesel": "yes", "fuel:lpg": "yes", "name": "Opet Sultanbeyli", "name:ar": "\u0645\u062d\u0637\u0629 \u0648\u0642\u0648\u062f \u0627\u0648\u0628\u064a\u062a", "operator": "Opet Petrolc\u00fcl\u00fck A.\u015e.", "source": "Yellow Pages T\u00fcrkiye", "website": "https://www.opet.com.tr/"}}, {"type": "node", "id": 4699023925, "lat": 40.8865592, "lon": 29.2418964, "tags": {"addr:city": "\u0130stanbul", "addr:country": "TR", "addr:district": "Pendik", "addr:housenumber": "30", "addr:neighbourhood": "Orta Mahallesi", "addr:postcode": "34896", "addr:street": "E-5 Yanyol Caddesi Latife Han\u0131m Sokak", "amenity": "fuel", "brand": "Opet", "brand:wikidata": "Q7072824", "brand:wikipedia": "en:Opet", "contact:fax": "+90 2163793894", "contact:phone": "+90 2165980708", "fuel:diesel": "yes", "fuel:lpg": "yes", "name": "Opet", "operator": "Opet Petrolc\u00fcl\u00fck A.\u015e.", "source": "Yellow Pages T\u00fcrkiye", "website": "https://www.opet.com.tr/"}}, {"type": "node", "id": 4699023930, "lat": 41.009864, "lon": 29.012243, "tags": {"addr:city": "\u0130stanbul", "addr:country": "TR", "addr:district": "\u00dcsk\u00fcdar", "addr:housenumber": "121/2", "addr:neighbourhood": "Selimiye Mahallesi", "addr:postcode": "34668", "addr:street": "Harem Sahil Yolu", "amenity": "fuel", "brand": "Opet", "brand:wikidata": "Q7072824", "brand:wikipedia": "en:Opet", "contact:fax": "+90 2164950721", "contact:phone": "+90 5531090575", "fuel:diesel": "yes", "fuel:lpg": "yes", "name": "Opet \u00dcsk\u00fcdar", "operator": "Opet Petrolc\u00fcl\u00fck A.\u015e.", "source": "Yellow Pages T\u00fcrkiye", "website": "https://www.opet.com.tr/"}}, {"type": "node", "id": 4699023934, "lat": 40.885945, "lon": 29.286563, "tags": {"addr:city": "\u0130stanbul", "addr:country": "TR", "addr:district": "Pendik", "addr:housenumber": "214", "addr:neighbourhood": "Kavakp\u0131nar Mahallesi", "addr:postcode": "34899", "addr:street": "Abdi \u0130pek\u00e7i Caddesi", "amenity": "fuel", "brand": "Opet", "brand:wikidata": "Q7072824", "brand:wikipedia": "tr:Opet", "contact:fax": "+90 2165964246", "contact:phone": "+90 2165964245", "fuel:diesel": "yes", "fuel:lpg": "yes", "name": "Opet Pendik", "operator": "Opet Petrolc\u00fcl\u00fck A.\u015e.", "source": "Yellow Pages T\u00fcrkiye", "website": "https://www.opet.com.tr/"}}, {"type": "node", "id": 4718176989, "lat": 40.9240928, "lon": 29.151085, "tags": {"amenity": "fuel", "brand": "Petrol Ofisi", "brand:wikidata": "Q1278087", "name": "Petrol Ofisi - Bulut Petrol", "name:tr": "Petrol Ofisi - Bulut Petrol"}}, {"type": "node", "id": 4718388547, "lat": 40.9377236, "lon": 29.138014, "tags": {"amenity": "fuel", "brand": "Opet", "brand:wikidata": "Q7072824", "brand:wikipedia": "en:Opet", "name": "Opet"}}, {"type": "node", "id": 4718388548, "lat": 40.9388796, "lon": 29.1361722, "tags": {"amenity": "fuel", "branch": "Altay\u00e7e\u015fme", "brand": "Shell", "brand:wikidata": "Q110716465", "brand:wikipedia": "en:Royal Dutch Shell", "name": "Shell"}}, {"type": "node", "id": 4718388549, "lat": 40.9397682, "lon": 29.1332185, "tags": {"amenity": "fuel", "brand": "TotalEnergies", "brand:wikidata": "Q154037", "brand:wikipedia": "fr:TotalEnergies", "name": "Total"}}, {"type": "node", "id": 4718485057, "lat": 40.9202486, "lon": 29.1476072, "tags": {"amenity": "fuel"}}, {"type": "node", "id": 4718488092, "lat": 40.9111444, "lon": 29.1953199, "tags": {"amenity": "fuel", "branch": "So\u011fanl\u0131k", "brand": "Shell", "brand:wikidata": "Q110716465", "brand:wikipedia": "en:Royal Dutch Shell", "name": "Shell"}}, {"type": "node", "id": 4718488093, "lat": 40.9089065, "lon": 29.2027174, "tags": {"amenity": "fuel"}}, {"type": "node", "id": 4718488098, "lat": 40.902499, "lon": 29.2174843, "tags": {"amenity": "fuel", "branch": "Yanyol Kartal", "brand": "Shell", "brand:wikidata": "Q110716465", "brand:wikipedia": "en:Royal Dutch Shell", "name": "Shell"}}, {"type": "node", "id": 4718488104, "lat": 40.8943224, "lon": 29.2284918, "tags": {"amenity": "fuel", "brand": "TotalEnergies", "brand:wikidata": "Q154037", "brand:wikipedia": "fr:TotalEnergies", "name": "Total"}}, {"type": "node", "id": 4718712547, "lat": 40.904372, "lon": 29.2786929, "tags": {"amenity": "fuel", "brand": "Opet", "brand:wikidata": "Q7072824", "brand:wikipedia": "en:Opet", "compressed_air": "yes", "name": "Opet"}}, {"type": "node", "id": 4718712560, "lat": 40.9079618, "lon": 29.2933732, "tags": {"amenity": "fuel", "brand": "TotalEnergies", "brand:wikidata": "Q154037", "name": "Total"}}, {"type": "node", "id": 4718712575, "lat": 40.914902, "lon": 29.303618, "tags": {"amenity": "fuel", "brand": "Petrol Ofisi", "brand:wikidata": "Q1278087", "name": "Petrol Ofisi"}}, {"type": "node", "id": 4720232022, "lat": 40.8940497, "lon": 29.1988693, "tags": {"amenity": "fuel", "branch": "\u00c7avu\u015fo\u011flu", "brand": "Shell", "brand:wikidata": "Q110716465", "name": "Shell"}}, {"type": "node", "id": 4720232036, "lat": 40.856096, "lon": 29.2912778, "tags": {"amenity": "fuel"}}, {"type": "node", "id": 4720232050, "lat": 40.824074, "lon": 29.3519893, "tags": {"amenity": "fuel"}}, {"type": "node", "id": 4720232051, "lat": 40.8171858, "lon": 29.3625531, "tags": {"amenity": "fuel"}}, {"type": "node", "id": 4773473882, "lat": 40.7840212, "lon": 29.3911472, "tags": {"amenity": "fuel"}}, {"type": "node", "id": 4773473932, "lat": 40.8234864, "lon": 29.4325764, "tags": {"amenity": "fuel"}}, {"type": "node", "id": 4779866887, "lat": 40.9264845, "lon": 29.3156064, "tags": {"amenity": "fuel", "brand": "Opet", "brand:wikidata": "Q7072824", "brand:wikipedia": "en:Opet", "fuel:diesel": "yes", "fuel:octane_95": "yes", "name": "Opet", "opening_hours": "24/7", "operator": "Opet"}}, {"type": "node", "id": 4779867627, "lat": 40.9650131, "lon": 29.2720354, "tags": {"amenity": "fuel"}}, {"type": "node", "id": 4779867647, "lat": 40.9748828, "lon": 29.2406807, "tags": {"addr:city": "\u0130stanbul", "addr:district": "Sancaktepe", "addr:neighbourhood": "Veysel Karani", "addr:postcode": "34885", "addr:street": "Osmangazi", "amenity": "fuel", "brand": "Petrol Ofisi", "brand:wikidata": "Q1278087", "brand:wikipedia": "en:Petrol Ofisi", "name": "Petrol Ofisi", "operator": "Petrol Ofisi"}}, {"type": "node", "id": 4779890036, "lat": 40.899134, "lon": 29.2686629, "tags": {"amenity": "fuel", "brand": "Shell", "brand:wikidata": "Q110716465", "brand:wikipedia": "en:Royal Dutch Shell", "name": "Shell"}}, {"type": "node", "id": 4826423021, "lat": 40.9144783, "lon": 29.140873, "tags": {"amenity": "fuel"}}, {"type": "node", "id": 4835446168, "lat": 40.9086602, "lon": 29.358626, "tags": {"amenity": "fuel"}}, {"type": "node", "id": 4838961896, "lat": 41.0071529, "lon": 29.1882859, "tags": {"amenity": "fuel", "name": "Class"}}, {"type": "node", "id": 4845792383, "lat": 41.0414243, "lon": 28.9796462, "tags": {"amenity": "fuel", "brand": "BP", "brand:wikidata": "Q152057", "brand:wikipedia": "en:BP", "compressed_air": "yes", "fixme": "check brand, BP in Turkey is acquired by Petrol Ofisi. Don't delete fixme if still BP please.", "name": "BP", "opening_hours": "24/7"}}, {"type": "node", "id": 4845792420, "lat": 41.0405187, "lon": 28.9673371, "tags": {"amenity": "fuel", "brand": "Shell", "brand:wikidata": "Q110716465", "name": "Shell"}}, {"type": "node", "id": 4845792521, "lat": 41.0416582, "lon": 28.9664429, "tags": {"amenity": "fuel", "name": "Petro Ofisi", "shop": "yes"}}, {"type": "node", "id": 4845792522, "lat": 41.0381426, "lon": 28.9680383, "tags": {"amenity": "fuel", "brand": "Shell", "brand:wikidata": "Q110716465", "name": "Shell"}}, {"type": "node", "id": 4845792523, "lat": 41.0384552, "lon": 28.9734829, "tags": {"amenity": "fuel"}}, {"type": "node", "id": 4845792524, "lat": 41.0388062, "lon": 28.9726479, "tags": {"amenity": "fuel"}}, {"type": "node", "id": 4845792525, "lat": 41.0398116, "lon": 28.9775232, "tags": {"amenity": "fuel", "brand": "TotalEnergies", "brand:wikidata": "Q154037", "check_date": "2022-08-22", "compressed_air": "yes", "name": "Total Milangaz", "opening_hours": "24/7", "wheelchair": "yes"}}, {"type": "node", "id": 4906013461, "lat": 40.9751284, "lon": 29.0522911}, {"type": "node", "id": 4906013471, "lat": 40.9753763, "lon": 29.0521349}, {"type": "node", "id": 4906013565, "lat": 40.9752048, "lon": 29.0523411}, {"type": "node", "id": 4906013566, "lat": 40.975091, "lon": 29.0523913}, {"type": "node", "id": 4906013750, "lat": 40.9753005, "lon": 29.0520852}, {"type": "node", "id": 4906013751, "lat": 40.9752432, "lon": 29.0524911}, {"type": "node", "id": 4908710483, "lat": 40.926288, "lon": 29.3511242}, {"type": "node", "id": 4908710484, "lat": 40.9261307, "lon": 29.3511807}, {"type": "node", "id": 4908710548, "lat": 40.9262621, "lon": 29.350998}, {"type": "node", "id": 4908710549, "lat": 40.9262472, "lon": 29.3510034}, {"type": "node", "id": 4908710738, "lat": 40.9261048, "lon": 29.3510546}, {"type": "node", "id": 4908710739, "lat": 40.9261181, "lon": 29.3510498}, {"type": "node", "id": 5022544104, "lat": 40.8504251, "lon": 29.4068927, "tags": {"amenity": "fuel"}}, {"type": "node", "id": 5022544109, "lat": 40.8569379, "lon": 29.3977989, "tags": {"amenity": "fuel"}}, {"type": "node", "id": 5022546223, "lat": 40.8622103, "lon": 29.3885162, "tags": {"amenity": "fuel"}}, {"type": "node", "id": 5022546228, "lat": 40.8634323, "lon": 29.3909564, "tags": {"amenity": "fuel"}}, {"type": "node", "id": 5022546235, "lat": 40.8826491, "lon": 29.4158287, "tags": {"amenity": "fuel"}}, {"type": "node", "id": 5022546236, "lat": 40.8855778, "lon": 29.41396, "tags": {"amenity": "fuel"}}, {"type": "node", "id": 5022546237, "lat": 40.903528, "lon": 29.3945702, "tags": {"amenity": "fuel"}}, {"type": "node", "id": 5022629078, "lat": 40.899745, "lon": 29.3511643, "tags": {"amenity": "fuel", "name": "Aytepe petrol"}}, {"type": "node", "id": 5022629117, "lat": 40.8986284, "lon": 29.2596818, "tags": {"amenity": "fuel", "brand": "Shell", "brand:wikidata": "Q110716465", "name": "Shell"}}, {"type": "node", "id": 5022629118, "lat": 40.8975594, "lon": 29.2541411, "tags": {"amenity": "fuel", "brand": "T\u00fcrkiye Petrolleri", "brand:wikidata": "Q15946806", "name": "T\u00fcrkiye Petrolleri"}}, {"type": "node", "id": 5022629333, "lat": 40.8903882, "lon": 29.2360378, "tags": {"addr:city": "\u0130stanbul", "addr:district": "Pendik", "addr:housenumber": "89", "addr:neighbourhood": "\u00c7\u0131nardere Mahallesi", "addr:street": "G\u00f6nenli Mehmet Efendi Caddesi", "amenity": "fuel", "branch": "Pendik-2", "brand": "TotalEnergies", "brand:wikidata": "Q154037", "compressed_air": "yes", "name": "TotalEnergies"}}, {"type": "node", "id": 5022636557, "lat": 40.896725, "lon": 29.2226562, "tags": {"amenity": "fuel"}}, {"type": "node", "id": 5022636564, "lat": 40.9134792, "lon": 29.1515461, "tags": {"amenity": "fuel"}}, {"type": "node", "id": 5022636573, "lat": 40.9164725, "lon": 29.1466453, "tags": {"amenity": "fuel"}}, {"type": "node", "id": 5022817283, "lat": 40.8751897, "lon": 29.2543039, "tags": {"addr:city": "\u0130stanbul", "addr:district": "Pendik", "addr:neighbourhood": "Kaynarca Mahallesi", "addr:street": "Ayd\u0131nl\u0131 Yolu Caddesi", "amenity": "fuel", "brand": "Shell", "brand:wikidata": "Q110716465", "brand:wikipedia": "fr:TotalEnergies", "fuel:diesel": "yes", "fuel:octane_95": "yes", "name": "Shell", "self_service": "no"}}, {"type": "node", "id": 5026301607, "lat": 40.7921323, "lon": 29.4022702, "tags": {"amenity": "fuel"}}, {"type": "node", "id": 5026301608, "lat": 40.8006369, "lon": 29.3879794, "tags": {"amenity": "fuel"}}, {"type": "node", "id": 5026301725, "lat": 40.7990328, "lon": 29.3833508, "tags": {"amenity": "fuel"}}, {"type": "node", "id": 5026301768, "lat": 40.808046, "lon": 29.3782627, "tags": {"amenity": "fuel"}}, {"type": "node", "id": 5026301769, "lat": 40.8118859, "lon": 29.3732478, "tags": {"amenity": "fuel"}}, {"type": "node", "id": 5026301770, "lat": 40.8177071, "lon": 29.3668386, "tags": {"amenity": "fuel", "brand": "Petrol Ofisi", "brand:wikidata": "Q1278087", "name": "Petrol Ofisi"}}, {"type": "node", "id": 5026301771, "lat": 40.8099221, "lon": 29.3699652, "tags": {"amenity": "fuel", "brand": "Aytemiz", "brand:wikidata": "Q62274352", "name": "Aytemiz"}}, {"type": "node", "id": 5031730251, "lat": 41.0437708, "lon": 29.2791974, "tags": {"amenity": "fuel", "brand": "Petrol Ofisi", "brand:wikidata": "Q1278087", "brand:wikipedia": "en:Petrol Ofisi", "name": "Petrol Ofisi"}}, {"type": "node", "id": 5050081268, "lat": 40.9234235, "lon": 29.151039, "tags": {"amenity": "fuel", "branch": "G\u00fclsuyu", "brand": "Shell", "brand:wikidata": "Q110716465", "name": "Shell"}}, {"type": "node", "id": 5052683541, "lat": 40.9504382, "lon": 29.1627223, "tags": {"amenity": "fuel", "brand": "Petrol Ofisi", "brand:wikidata": "Q1278087", "name": "Petrol Ofisi"}}, {"type": "node", "id": 5052765899, "lat": 40.9667645, "lon": 29.2156254, "tags": {"amenity": "fuel"}}, {"type": "node", "id": 5052765904, "lat": 40.9664324, "lon": 29.2164926, "tags": {"amenity": "fuel"}}, {"type": "node", "id": 5052766527, "lat": 40.9695598, "lon": 29.2201602, "tags": {"amenity": "fuel"}}, {"type": "node", "id": 5052766554, "lat": 40.9806034, "lon": 29.2202745, "tags": {"amenity": "fuel"}}, {"type": "node", "id": 5052766565, "lat": 40.986969, "lon": 29.2261047, "tags": {"amenity": "fuel", "brand": "Opet", "brand:wikidata": "Q7072824", "name": "Opet"}}, {"type": "node", "id": 5052833560, "lat": 40.9927015, "lon": 29.2231235, "tags": {"amenity": "fuel"}}, {"type": "node", "id": 5053328286, "lat": 41.0038954, "lon": 29.2168851, "tags": {"amenity": "fuel", "compressed_air": "no"}}, {"type": "node", "id": 5053408890, "lat": 41.0097306, "lon": 29.210874, "tags": {"amenity": "fuel", "brand": "BP", "brand:wikidata": "Q152057", "brand:wikipedia": "en:BP", "name": "BP"}}, {"type": "node", "id": 5053408891, "lat": 41.0103626, "lon": 29.2103946, "tags": {"amenity": "fuel", "brand": "Petrol Ofisi", "brand:wikidata": "Q1278087", "brand:wikipedia": "en:Petrol Ofisi", "compressed_air": "no", "name": "Petrol Ofisi"}}, {"type": "node", "id": 5053408898, "lat": 41.0125502, "lon": 29.2073884, "tags": {"amenity": "fuel"}}, {"type": "node", "id": 5053409386, "lat": 41.0136153, "lon": 29.1912113, "tags": {"amenity": "fuel", "compressed_air": "yes"}}, {"type": "node", "id": 5053409725, "lat": 41.0165644, "lon": 29.1777204, "tags": {"amenity": "fuel", "brand": "Petrol Ofisi", "brand:wikidata": "Q1278087", "brand:wikipedia": "en:Petrol Ofisi", "compressed_air": "yes", "name": "Petrol Ofisi"}}, {"type": "node", "id": 5053458360, "lat": 41.0181927, "lon": 29.171658, "tags": {"amenity": "fuel", "brand": "BP", "brand:wikidata": "Q152057", "name": "BP", "opening_hours": "24/7", "website": "https://www.bp.com/tr_tr/turkey/retail.html"}}, {"type": "node", "id": 5056240692, "lat": 40.9293369, "lon": 29.1295388, "tags": {"amenity": "fuel", "branch": "Maltepe", "brand": "Shell", "brand:wikidata": "Q110716465", "brand:wikipedia": "en:Royal Dutch Shell", "name": "Shell"}}, {"type": "node", "id": 5107277905, "lat": 41.0165067, "lon": 29.0302075, "tags": {"amenity": "fuel", "compressed_air": "yes"}}, {"type": "node", "id": 5107315776, "lat": 41.0047684, "lon": 29.0353401, "tags": {"amenity": "fuel", "brand": "Aytemiz", "brand:wikidata": "Q62274352", "name": "Aytemiz"}}, {"type": "node", "id": 5110198325, "lat": 41.0478767, "lon": 28.9685879, "tags": {"amenity": "fuel"}}, {"type": "node", "id": 5149577694, "lat": 40.9717653, "lon": 29.2485139, "tags": {"addr:city": "\u0130stanbul", "addr:district": "Sultanbeyli", "addr:street": "Fatih Bulvar\u0131", "amenity": "fuel", "amenity_1": "fuel", "brand": "Petrol Ofisi", "brand:wikidata": "Q1278087", "brand:wikipedia": "en:Petrol Ofisi", "name": "Petrol Ofisi"}}, {"type": "node", "id": 5151220720, "lat": 40.967791, "lon": 29.2699856, "tags": {"amenity": "fuel"}}, {"type": "node", "id": 5151430409, "lat": 40.9697013, "lon": 29.2659915, "tags": {"amenity": "fuel", "brand": "TotalEnergies", "brand:wikidata": "Q154037", "brand:wikipedia": "fr:TotalEnergies", "name": "Total"}}, {"type": "node", "id": 5158327351, "lat": 40.9406294, "lon": 29.2852556, "tags": {"amenity": "fuel"}}, {"type": "node", "id": 5208250439, "lat": 40.9605351, "lon": 29.2916233, "tags": {"amenity": "fuel", "brand": "Shell", "brand:wikidata": "Q110716465", "brand:wikipedia": "en:Royal Dutch Shell", "name": "Shell", "operator": "Shell"}}, {"type": "node", "id": 5229773921, "lat": 40.8792929, "lon": 29.2204988, "tags": {"amenity": "fuel"}}, {"type": "node", "id": 5244129822, "lat": 40.9902534, "lon": 29.1758465, "tags": {"amenity": "fuel", "brand": "Lukoil", "brand:wikidata": "Q329347", "brand:wikipedia": "en:Lukoil", "name": "Lukoil"}}, {"type": "node", "id": 5244796137, "lat": 41.0151886, "lon": 28.968297, "tags": {"addr:city": "\u0130stanbul", "addr:district": "Fatih", "addr:street": "Vas\u0131f \u00c7\u0131nar Caddesi", "amenity": "fuel", "brand": "Opet", "brand:wikidata": "Q7072824", "brand:wikipedia": "en:Opet", "compressed_air": "no", "name": "Opet Tahtakale"}}, {"type": "node", "id": 5244801830, "lat": 41.0017886, "lon": 28.9725372, "tags": {"addr:city": "\u0130stanbul", "addr:district": "Fatih", "addr:street": "Kennedy Avenue", "amenity": "fuel", "brand": "TotalEnergies", "brand:wikidata": "Q154037", "check_date": "2025-09-30", "name": "Kumkapi TotalEnergies", "name:ar": "\u0643\u0627\u0632\u064a\u0629 \u0645\u0648\u064a\u0644 \u0643\u0648\u0645\u0643\u0627\u0628\u064a", "operator": "TotalEnergies", "operator:type": "private", "operator:wikidata": "Q154037"}}, {"type": "node", "id": 5256502944, "lat": 40.7732556, "lon": 29.3795226, "tags": {"amenity": "fuel", "brand": "Lukoil", "brand:wikidata": "Q329347", "brand:wikipedia": "en:Lukoil", "name": "Lukoil"}}, {"type": "node", "id": 5272471198, "lat": 40.9573939, "lon": 29.0976751, "tags": {"amenity": "fuel", "branch": "Bostanc\u0131 Merkez", "brand": "Shell", "brand:wikidata": "Q110716465", "brand:wikipedia": "en:Royal Dutch Shell", "name": "Shell"}}, {"type": "node", "id": 5281796616, "lat": 40.8843453, "lon": 29.2359312, "tags": {"amenity": "fuel", "name": "Class Petrol"}}, {"type": "node", "id": 5282028235, "lat": 40.9382947, "lon": 29.1408662, "tags": {"amenity": "fuel"}}, {"type": "node", "id": 5283303556, "lat": 40.981511, "lon": 29.0686312, "tags": {"amenity": "fuel", "brand": "Petrol Ofisi", "brand:wikidata": "Q1278087", "brand:wikipedia": "en:Petrol Ofisi", "compressed_air": "yes", "name": "Petrol Ofisi"}}, {"type": "node", "id": 5290533598, "lat": 41.007132, "lon": 29.1903445, "tags": {"amenity": "fuel", "brand": "Shell", "brand:wikidata": "Q110716465", "brand:wikipedia": "en:Royal Dutch Shell", "name": "Shell"}}, {"type": "node", "id": 5291682316, "lat": 40.8908871, "lon": 29.2632647, "tags": {"amenity": "fuel", "brand": "Petrol Ofisi", "brand:wikidata": "Q1278087", "brand:wikipedia": "en:Petrol Ofisi", "email": "info@arasena.com", "name": "Petrol Ofisi Arasena", "opening_hours": "24/7", "operator": "Arasena Enerji Petrol A.\u015e.", "phone": "+90 216 397 0901", "website": "http://www.arasena.com"}}, {"type": "node", "id": 5292281495, "lat": 40.890674, "lon": 29.2342555, "tags": {"amenity": "fuel", "brand": "TotalEnergies", "brand:wikidata": "Q154037", "brand:wikipedia": "fr:TotalEnergies", "name": "Total"}}, {"type": "node", "id": 5293882371, "lat": 40.7946004, "lon": 29.3680901, "tags": {"amenity": "fuel", "brand": "Petrol Ofisi", "brand:wikidata": "Q1278087", "brand:wikipedia": "en:Petrol Ofisi", "name": "Petrol Ofisi"}}, {"type": "node", "id": 5294175808, "lat": 40.775887, "lon": 29.3779254, "tags": {"amenity": "fuel", "brand": "T\u00fcrkiye Petrolleri", "brand:wikidata": "Q15946806", "name": "T\u00fcrkiye Petrolleri"}}, {"type": "node", "id": 5295378910, "lat": 40.9168959, "lon": 29.195766, "tags": {"amenity": "fuel"}}, {"type": "node", "id": 5296917325, "lat": 40.7908268, "lon": 29.3674166, "tags": {"amenity": "fuel"}}, {"type": "node", "id": 5296917326, "lat": 40.7876518, "lon": 29.3657207, "tags": {"amenity": "fuel"}}, {"type": "node", "id": 5316011367, "lat": 40.8875592, "lon": 29.1917101, "tags": {"amenity": "fuel", "brand": "BP", "brand:wikidata": "Q152057", "brand:wikipedia": "en:BP", "fixme": "check brand, BP in Turkey is acquired by Petrol Ofisi. Don't delete fixme if still BP please.", "name": "BP"}}, {"type": "node", "id": 5316391220, "lat": 40.9905592, "lon": 29.0767874, "tags": {"amenity": "fuel", "name": "Uspet"}}, {"type": "node", "id": 5316393025, "lat": 40.9899507, "lon": 29.0820974, "tags": {"amenity": "fuel", "brand": "Petrol Ofisi", "brand:wikidata": "Q1278087", "brand:wikipedia": "en:Petrol Ofisi", "name": "Petrol Ofisi"}}, {"type": "node", "id": 5316393026, "lat": 40.9980508, "lon": 29.0915291, "tags": {"amenity": "fuel"}}, {"type": "node", "id": 5329319844, "lat": 40.9424888, "lon": 29.3020362, "tags": {"addr:city": "\u0130stanbul", "addr:district": "Pendik", "addr:street": "Fatih Bulvar\u0131", "amenity": "fuel", "brand": "Petrol Ofisi", "brand:wikidata": "Q1278087", "brand:wikipedia": "en:Petrol Ofisi", "name": "Petrol Ofisi", "name:ar": "\u0628\u0648"}}, {"type": "node", "id": 5329320553, "lat": 40.9727059, "lon": 29.2622919, "tags": {"addr:city": "\u0130stanbul", "addr:district": "Sultanbeyli", "amenity": "fuel", "name": "P MAX", "name:ar": "\u0628 \u0645\u0627\u0643\u0633"}}, {"type": "node", "id": 5329338009, "lat": 40.9643618, "lon": 29.2742466, "tags": {"addr:city": "\u0130stanbul", "addr:district": "Sultanbeyli", "addr:street": "Erdo\u011fan caddesi", "amenity": "fuel", "brand": "Aytemiz", "brand:wikidata": "Q62274352", "name": "Aytemiz"}}, {"type": "node", "id": 5344919571, "lat": 40.9422553, "lon": 29.30125, "tags": {"addr:city": "\u0130stanbul", "addr:district": "Pendik", "addr:street": "Fatih Bulvar\u0131", "amenity": "fuel", "brand": "Lukoil", "brand:wikidata": "Q329347", "brand:wikipedia": "en:Lukoil", "name": "Lukoil", "name:ar": "\u0644\u0648\u0643 \u0627\u0648\u064a\u0644"}}, {"type": "node", "id": 5362917722, "lat": 41.0231146, "lon": 29.1079509, "tags": {"amenity": "fuel", "brand": "Opet", "brand:wikidata": "Q7072824", "brand:wikipedia": "en:Opet", "name": "Opet G\u00fcltepe", "name:tr": "Opet G\u00fcltepe"}}, {"type": "node", "id": 5362917723, "lat": 41.0020489, "lon": 29.1636539, "tags": {"amenity": "fuel", "brand": "Opet", "brand:wikidata": "Q7072824", "brand:wikipedia": "en:Opet", "name": "Opet imes 1", "name:tr": "Opet imes 1"}}, {"type": "node", "id": 5362920522, "lat": 40.8554842, "lon": 29.3678858, "tags": {"amenity": "fuel", "name": "Besa petl\u0131ine", "name:tr": "Besa petl\u0131ine"}}, {"type": "node", "id": 5385351123, "lat": 41.0018496, "lon": 29.1643045, "tags": {"amenity": "fuel", "name": "imes petrol 089"}}, {"type": "node", "id": 5385351124, "lat": 40.971905, "lon": 29.2491636, "tags": {"amenity": "fuel", "brand": "Opet", "brand:wikidata": "Q7072824", "brand:wikipedia": "en:Opet", "name": "Opet"}}, {"type": "node", "id": 5385354921, "lat": 40.9458545, "lon": 29.1274403, "tags": {"amenity": "fuel", "brand": "Opet", "brand:wikidata": "Q7072824", "name": "Opet"}}, {"type": "node", "id": 5437546261, "lat": 41.0154297, "lon": 29.2437366, "tags": {"amenity": "fuel"}}, {"type": "node", "id": 5437546316, "lat": 41.0269115, "lon": 29.2397661, "tags": {"amenity": "fuel", "brand": "Shell", "brand:wikidata": "Q110716465", "name": "Shell"}}, {"type": "node", "id": 5437672597, "lat": 41.0396942, "lon": 29.2345379, "tags": {"amenity": "fuel", "brand": "Petrol Ofisi", "brand:wikidata": "Q1278087", "brand:wikipedia": "fr:Total (entreprise)", "name": "Petrol Ofisi", "opening_hours": "24/7", "website": "https://www.petrolofisi.com.tr/"}}, {"type": "node", "id": 5462640316, "lat": 41.0079027, "lon": 29.1808357, "tags": {"amenity": "fuel", "brand": "BP", "brand:wikidata": "Q152057", "name": "BP"}}, {"type": "node", "id": 5479470554, "lat": 41.0227995, "lon": 29.1096406, "tags": {"amenity": "fuel", "brand": "Petrol Ofisi", "brand:wikidata": "Q1278087", "brand:wikipedia": "en:Petrol Ofisi", "name": "Petrol Ofisi"}}, {"type": "node", "id": 5479470622, "lat": 41.0221955, "lon": 29.1126822, "tags": {"amenity": "fuel", "brand": "TotalEnergies", "brand:wikidata": "Q154037", "name": "TotalEnergies", "wheelchair": "yes"}}, {"type": "node", "id": 5542883356, "lat": 40.9643673, "lon": 29.281366, "tags": {"addr:city": "\u0130stanbul", "addr:district": "Sultanbeyli", "addr:street": "Fatih Bulvar\u0131 Caddesi", "amenity": "fuel", "name": "Onex", "name:ar": "\u0645\u062d\u0637\u0629 \u0648\u0642\u0648\u062f \u0627\u0648\u0646\u0643\u0633", "phone": "02164985028"}}, {"type": "node", "id": 5542883408, "lat": 40.9711613, "lon": 29.2575172, "tags": {"addr:city": "\u0130stanbul", "addr:district": "Sultanbeyli", "addr:street": "Atat\u00fcrk Caddesi", "amenity": "fuel", "brand": "Opet", "brand:wikidata": "Q7072824", "brand:wikipedia": "en:Opet", "name": "Opet", "name:ar": "\u0645\u062d\u0637\u0629 \u0648\u0642\u0648\u062f \u0627\u0648\u0628\u064a\u062a"}}, {"type": "node", "id": 5542883570, "lat": 40.9694406, "lon": 29.2571926, "tags": {"addr:city": "\u0130stanbul", "addr:district": "Sultanbeyli", "addr:street": "faith bulvar\u0131 Caddesi", "amenity": "fuel", "brand": "TotalEnergies", "brand:wikidata": "Q154037", "brand:wikipedia": "fr:TotalEnergies", "name": "Total", "name:ar": "\u0645\u062d\u0637\u0629 \u0648\u0642\u0648\u062f \u062a\u0648\u062a\u0627\u0644"}}, {"type": "node", "id": 5542883589, "lat": 40.9419343, "lon": 29.30161, "tags": {"addr:city": "\u0130stanbul", "addr:district": "Pendik", "addr:street": "E\u015fref bitlis blv", "amenity": "fuel", "name": "Bulvar giri\u015fi", "name:ar": "\u0628\u0648\u0644\u0641\u0627\u0631 \u0643\u064a\u0631\u064a\u0634\u0627;\u0628\u0648\u0644\u0641\u0627 \u0643\u064a\u0631\u064a\u0634"}}, {"type": "node", "id": 5542883633, "lat": 40.948057, "lon": 29.2996747, "tags": {"addr:city": "\u0130stanbul", "addr:district": "Pendik", "addr:street": "Fatih bulguru", "amenity": "fuel", "name": "Ak\u015famsettin", "name:ar": "\u0645\u062d\u0637\u0629 \u062d\u0627\u0641\u0644\u0627\u062a)\u0627\u0643\u0634\u0627\u0645 \u0633\u062a\u064a\u0646"}}, {"type": "node", "id": 5542883700, "lat": 40.9825628, "lon": 29.2667627, "tags": {"addr:city": "\u0130stanbul", "addr:district": "Sultanbeyli", "addr:street": "bosna Caddesi", "amenity": "fuel", "brand": "Shell", "brand:wikidata": "Q110716465", "brand:wikipedia": "en:Royal Dutch Shell", "name": "Shell", "name:ar": "\u0645\u062d\u0637\u0629 \u0648\u0642\u0648\u062f \u0633\u064a\u0644\u064a\u062c\u062a"}}, {"type": "node", "id": 5542886345, "lat": 40.951119, "lon": 29.2976145, "tags": {"addr:city": "\u0130stanbul", "addr:district": "Pendik", "addr:street": "sanayiye", "amenity": "fuel", "brand": "TotalEnergies", "brand:wikidata": "Q154037", "brand:wikipedia": "fr:Total \u00c9nergies", "name": "total Emkar petrol sanayi kars\u00ec", "name:ar": "\u0628\u062a\u0631\u0648\u0644"}}, {"type": "node", "id": 5542889147, "lat": 40.9638346, "lon": 29.2844653, "tags": {"addr:city": "\u0130stanbul", "addr:district": "Pendik", "addr:street": "Fatih Bulvar\u0131 Caddesi", "amenity": "fuel", "brand": "T\u00fcrkiye Petrolleri", "brand:wikidata": "Q15946806", "name": "TP - T\u00fcrkiye Petrolleri", "name:ar": "\u0645\u062d\u0637\u0629 \u0627\u0633\u062a\u0627\u0633\u064a\u0648\u0646"}}, {"type": "node", "id": 5543597120, "lat": 40.8594511, "lon": 29.3772812, "tags": {"amenity": "fuel"}}, {"type": "node", "id": 5616649534, "lat": 40.9814332, "lon": 29.0811831, "tags": {"amenity": "fuel", "brand": "BP", "brand:wikidata": "Q152057", "brand:wikipedia": "en:BP", "fixme": "check brand, BP in Turkey is acquired by Petrol Ofisi. Don't delete fixme if still BP please.", "name": "BP"}}, {"type": "node", "id": 5940640333, "lat": 40.96645, "lon": 29.103328, "tags": {"amenity": "fuel"}}, {"type": "node", "id": 5940682543, "lat": 40.9670745, "lon": 29.104211, "tags": {"amenity": "fuel", "brand": "BP", "brand:wikidata": "Q152057", "brand:wikipedia": "en:BP", "name": "BP"}}, {"type": "node", "id": 5948284506, "lat": 40.8811717, "lon": 29.3451289, "tags": {"amenity": "fuel", "brand": "Shell", "brand:wikidata": "Q110716465", "brand:wikipedia": "en:Royal Dutch Shell", "name": "Shell"}}, {"type": "node", "id": 5950843462, "lat": 40.8198134, "lon": 29.4150015, "tags": {"amenity": "fuel", "brand": "Aytemiz", "brand:wikidata": "Q62274352", "name": "Aytemiz"}}, {"type": "node", "id": 5950843469, "lat": 40.8248611, "lon": 29.4138981, "tags": {"amenity": "fuel"}}, {"type": "node", "id": 5950843515, "lat": 40.8145536, "lon": 29.4174109, "tags": {"amenity": "fuel", "brand": "Shell", "brand:wikidata": "Q110716465", "name": "Shell"}}, {"type": "node", "id": 5950859552, "lat": 40.8132967, "lon": 29.4388288, "tags": {"amenity": "fuel"}}, {"type": "node", "id": 5954059533, "lat": 41.0225451, "lon": 29.0753284, "tags": {"amenity": "fuel", "brand": "Petrol Ofisi", "brand:wikidata": "Q1278087", "name": "Petrol Ofisi"}}, {"type": "node", "id": 5968860779, "lat": 40.8390872, "lon": 29.2954604, "tags": {"amenity": "fuel"}}, {"type": "node", "id": 5971874675, "lat": 40.7954094, "lon": 29.4078952, "tags": {"amenity": "fuel"}}, {"type": "node", "id": 5971874904, "lat": 40.7913152, "lon": 29.4081947, "tags": {"amenity": "fuel"}}, {"type": "node", "id": 6000017192, "lat": 40.9279097, "lon": 29.1329757, "tags": {"amenity": "fuel", "brand": "Petrol Ofisi", "brand:wikidata": "Q1278087", "brand:wikipedia": "en:Petrol Ofisi", "name": "Petrol Ofisi"}}, {"type": "node", "id": 6012596061, "lat": 41.0322908, "lon": 29.1736573, "tags": {"amenity": "fuel", "brand": "Shell", "brand:wikidata": "Q110716465", "brand:wikipedia": "en:Royal Dutch Shell", "name": "Shell", "wheelchair": "yes"}}, {"type": "node", "id": 6031330355, "lat": 40.8773356, "lon": 29.420393, "tags": {"amenity": "fuel"}}, {"type": "node", "id": 6318139757, "lat": 40.9105568, "lon": 29.2161373, "tags": {"amenity": "fuel", "brand": "TotalEnergies", "brand:wikidata": "Q154037", "brand:wikipedia": "fr:TotalEnergies", "name": "Total", "opening_hours": "24/7"}}, {"type": "node", "id": 6380773887, "lat": 41.0248356, "lon": 29.2256803, "tags": {"amenity": "fuel", "brand": "BP", "brand:wikidata": "Q152057", "brand:wikipedia": "en:BP", "name": "BP"}}, {"type": "node", "id": 6390459922, "lat": 40.8999268, "lon": 29.2199557, "tags": {"amenity": "fuel", "branch": "Yakac\u0131k Kartal", "brand": "Shell", "brand:wikidata": "Q110716465", "name": "Shell"}}, {"type": "node", "id": 6507504085, "lat": 40.9567108, "lon": 29.2138795, "tags": {"amenity": "fuel", "name": "133 imes petrol"}}, {"type": "node", "id": 6512531400, "lat": 40.9894463, "lon": 29.0421754, "tags": {"amenity": "fuel", "brand": "BP", "brand:wikidata": "Q152057", "brand:wikipedia": "en:BP", "name": "BP", "name:en": "BP Ziverbey", "wheelchair": "yes"}}, {"type": "node", "id": 6518087485, "lat": 40.886222, "lon": 29.236328, "tags": {"addr:city": "\u0130stanbul", "addr:district": "Pendik", "addr:housenumber": "70/1", "addr:neighbourhood": "Bah\u00e7elievler Mahallesi", "addr:street": "Naz\u0131m Hikmet Caddesi", "amenity": "fuel", "brand": "T\u00fcrkiye Petrolleri", "brand:wikidata": "Q15946806", "name": "T\u00fcrkiye Petrolleri"}}, {"type": "node", "id": 6577151296, "lat": 40.9110485, "lon": 29.1818113, "tags": {"addr:city": "\u0130stanbul", "addr:country": "TR", "addr:district": "Kartal", "addr:housenumber": "68", "addr:neighbourhood": "Cevizli Mahallesi", "addr:postcode": "34865", "addr:street": "Mustafa Kemal Caddesi", "amenity": "fuel", "brand": "Opet", "brand:wikidata": "Q7072824", "brand:wikipedia": "tr:Opet", "contact:fax": "+90 2163718789", "contact:phone": "+90 2163718787", "fuel:diesel": "yes", "fuel:lpg": "yes", "name": "Opet", "operator": "Opet Petrolc\u00fcl\u00fck A.\u015e.", "source": "Yellow Pages T\u00fcrkiye", "website": "https://www.opet.com.tr/"}}, {"type": "node", "id": 6595207917, "lat": 40.8652979, "lon": 29.379763, "tags": {"amenity": "fuel", "brand": "Shell", "brand:wikidata": "Q154950", "brand:wikipedia": "en:Royal Dutch Shell", "name": "Shell"}}, {"type": "node", "id": 6805146202, "lat": 41.0145892, "lon": 29.0756042, "tags": {"amenity": "fuel", "brand": "TotalEnergies", "brand:wikidata": "Q154037", "compressed_air": "no", "name": "Total", "wheelchair": "yes"}}, {"type": "node", "id": 6805337406, "lat": 40.9894307, "lon": 29.1953675, "tags": {"amenity": "fuel"}}, {"type": "node", "id": 6824870909, "lat": 41.0239387, "lon": 29.0544696}, {"type": "node", "id": 6824870923, "lat": 41.0242779, "lon": 29.0544938}, {"type": "node", "id": 6824870925, "lat": 41.0245623, "lon": 29.0545501}, {"type": "node", "id": 6824870927, "lat": 41.0246429, "lon": 29.0552534}, {"type": "node", "id": 6837199412, "lat": 41.0327953, "lon": 29.1112289}, {"type": "node", "id": 6862518820, "lat": 41.0078954, "lon": 29.1928866, "tags": {"amenity": "fuel", "brand": "Opet", "brand:wikidata": "Q7072824", "brand:wikipedia": "en:Opet", "name": "Opet", "opening_hours": "24/7"}}, {"type": "node", "id": 6863696019, "lat": 40.9274927, "lon": 29.3469241, "tags": {"amenity": "fuel", "brand": "Petrol Ofisi", "brand:wikidata": "Q1278087", "brand:wikipedia": "en:Petrol Ofisi", "name": "Petrol Ofisi", "source": "bing"}}, {"type": "node", "id": 6884267014, "lat": 41.0139552, "lon": 29.1954355, "tags": {"addr:city": "\u0130stanbul", "addr:district": "\u00c7ekmek\u00f6y", "addr:neighbourhood": "\u00c7aml\u0131k Mahallesi", "addr:postcode": "34782", "addr:street": "Muhsin Yaz\u0131c\u0131o\u011flu Caddesi", "amenity": "fuel", "name": "Shell"}}, {"type": "node", "id": 6973615085, "lat": 40.9288418, "lon": 29.4395912, "tags": {"amenity": "fuel"}}, {"type": "node", "id": 7046396309, "lat": 41.0144577, "lon": 29.1904016, "tags": {"amenity": "fuel", "brand": "Opet", "brand:wikidata": "Q7072824", "compressed_air": "yes", "name": "Opet", "operator": "Yama\u00e7 Petrol"}}, {"type": "node", "id": 7046396315, "lat": 40.9936151, "lon": 29.1889906, "tags": {"addr:city": "\u0130stanbul", "addr:country": "TR", "addr:district": "\u00dcmraniye", "addr:housenumber": "2 D: 2", "addr:neighbourhood": "Esen\u015fehir Mahallesi", "addr:place": "Kadosan Oto Sanayi Sitesi", "addr:postcode": "34776", "addr:street": "1. Caddesi 10. Sokak", "amenity": "fuel", "brand": "Opet", "brand:wikidata": "Q7072824", "brand:wikipedia": "en:Opet", "contact:fax": "+90 2165264312", "contact:phone": "+90 2165264304", "fuel:diesel": "yes", "fuel:lpg": "yes", "name": "Opet \u00dcmraniye", "operator": "Opet Petrolc\u00fcl\u00fck A.\u015e.", "source": "Yellow Pages T\u00fcrkiye", "website": "https://www.opet.com.tr/"}}, {"type": "node", "id": 7125660786, "lat": 41.026754, "lon": 29.2427586, "tags": {"amenity": "fuel", "brand": "Opet", "brand:wikidata": "Q7072824", "name": "Opet"}}, {"type": "node", "id": 7145762089, "lat": 41.0167364, "lon": 29.0765711}, {"type": "node", "id": 7145762135, "lat": 41.018544, "lon": 29.0845768, "tags": {"amenity": "fuel", "brand": "Petrol Ofisi", "brand:wikidata": "Q1278087", "brand:wikipedia": "en:Petrol Ofisi", "compressed_air": "yes", "name": "Petrol Ofisi", "wheelchair": "yes"}}, {"type": "node", "id": 7370312886, "lat": 40.8146571, "lon": 29.374001, "tags": {"amenity": "fuel", "name": "clas petrol"}}, {"type": "node", "id": 7523622408, "lat": 40.9775719, "lon": 29.0971615, "tags": {"addr:city": "\u0130stanbul", "addr:district": "Kad\u0131k\u00f6y", "addr:housenumber": "111", "addr:neighbourhood": "19 May\u0131s Mahallesi", "addr:postcode": "34736", "addr:street": "\u0130n\u00f6n\u00fc Caddesi", "amenity": "fuel", "brand": "Shell", "brand:wikidata": "Q110716465", "name": "Shell", "opening_hours": "24/7", "website": "https://find.shell.com/tr/fuel/13220488-kozyatagi-e5/tr_TR"}}, {"type": "node", "id": 7562999678, "lat": 41.0275668, "lon": 29.026192, "tags": {"amenity": "fuel"}}, {"type": "node", "id": 7569789947, "lat": 41.0098484, "lon": 29.2111693}, {"type": "node", "id": 7569789948, "lat": 41.0093467, "lon": 29.2111099}, {"type": "node", "id": 7569789962, "lat": 41.0137564, "lon": 29.2466676}, {"type": "node", "id": 7590353435, "lat": 41.0042153, "lon": 29.2165596}, {"type": "node", "id": 7590353437, "lat": 41.0042889, "lon": 29.2169139}, {"type": "node", "id": 7593132264, "lat": 41.0036206, "lon": 29.2171507}, {"type": "node", "id": 7621910819, "lat": 40.9393933, "lon": 29.3172635, "tags": {"amenity": "fuel", "brand": "Petrol Ofisi", "brand:wikidata": "Q1278087", "brand:wikipedia": "en:Petrol Ofisi", "name": "Petrol Ofisi"}}, {"type": "node", "id": 7656054264, "lat": 41.0015329, "lon": 29.0780713, "tags": {"addr:city": "\u0130stanbul", "addr:district": "ata\u015fehir", "addr:street": "Adnan Menderes Caddesi", "amenity": "fuel", "brand": "Shell", "brand:wikidata": "Q110716465", "brand:wikipedia": "en:Royal Dutch Shell", "compressed_air": "yes", "name": "Shell"}}, {"type": "node", "id": 7668596055, "lat": 40.9816004, "lon": 29.2215046, "tags": {"amenity": "fuel"}}, {"type": "node", "id": 7740567851, "lat": 40.9176914, "lon": 29.1440382, "tags": {"amenity": "fuel", "brand": "Best", "brand:wikidata": "Q127592740", "name": "Best"}}, {"type": "node", "id": 7817431980, "lat": 41.0094904, "lon": 29.2107023}, {"type": "node", "id": 7817432107, "lat": 41.0098334, "lon": 29.2109645}, {"type": "node", "id": 7817432108, "lat": 41.0099116, "lon": 29.210653}, {"type": "node", "id": 8374525367, "lat": 40.8197439, "lon": 29.4445917, "tags": {"addr:city": "Kocaeli", "addr:country": "TR", "addr:district": "Gebze", "addr:housenumber": "138", "addr:neighbourhood": "\u0130n\u00f6n\u00fc Mahallesi", "addr:postcode": "41400", "addr:street": "Gen\u00e7lik Caddesi", "amenity": "fuel", "brand": "Opet", "brand:wikidata": "Q7072824", "brand:wikipedia": "tr:Opet", "contact:fax": "+90 2626421727", "contact:phone": "+90 2626421726", "fuel:diesel": "yes", "fuel:lpg": "yes", "name": "Opet Gebze", "operator": "Opet Petrolc\u00fcl\u00fck A.\u015e.", "source": "Yellow Pages T\u00fcrkiye", "website": "https://www.opet.com.tr/"}}, {"type": "node", "id": 8520542077, "lat": 40.8806693, "lon": 29.255162, "tags": {"amenity": "fuel", "brand": "Shell", "brand:wikidata": "Q110716465", "brand:wikipedia": "en:Royal Dutch Shell", "name": "Shell"}}, {"type": "node", "id": 8585585831, "lat": 40.8731683, "lon": 29.2652568, "tags": {"amenity": "fuel", "branch": "Aria Petrol", "brand": "T\u00fcrkiye Petrolleri", "brand:wikidata": "Q15946806", "name": "T\u00fcrkiye Petrolleri", "source": "bing"}}, {"type": "node", "id": 8585585832, "lat": 40.8736907, "lon": 29.26607, "tags": {"addr:city": "\u0130stanbul", "addr:district": "Pendik", "addr:housenumber": "169", "addr:neighbourhood": "Fevzi \u00c7akmak", "addr:street": "Tevfik \u0130leri Caddesi", "amenity": "fuel", "branch": "Akg\u00fcnler Petrol", "brand": "T\u00fcrkiye Petrolleri", "brand:wikidata": "Q15946806", "name": "T\u00fcrkiye Petrolleri"}}, {"type": "node", "id": 8630882668, "lat": 41.0166427, "lon": 29.1456964}, {"type": "node", "id": 8637968533, "lat": 41.0088635, "lon": 29.2011727}, {"type": "node", "id": 8637968534, "lat": 41.0089528, "lon": 29.2020698}, {"type": "node", "id": 8852452641, "lat": 40.931674, "lon": 29.3389549, "tags": {"addr:city": "\u0130stanbul", "addr:country": "TR", "addr:district": "Tuzla", "addr:neighbourhood": "Fatih Mahallesi", "addr:postcode": "34956", "addr:street": "Eski Ankara Caddesi Tepe\u00f6ren Yolu", "amenity": "fuel", "brand": "Opet", "brand:wikidata": "Q7072824", "brand:wikipedia": "tr:Opet", "contact:fax": "+90 2164829608", "contact:phone": "+90 2164829606", "fuel:diesel": "yes", "fuel:lpg": "yes", "name": "Opet Tuzla", "name:tr": "Opet Tuzla hedef 2", "operator": "Opet Petrolc\u00fcl\u00fck A.\u015e.", "source": "Yellow Pages T\u00fcrkiye", "website": "https://www.opet.com.tr/"}}, {"type": "node", "id": 9164767329, "lat": 40.871259, "lon": 29.3314775, "tags": {"addr:city": "\u0130stanbul", "addr:district": "Tuzla", "addr:neighbourhood": "Ayd\u0131nl\u0131 Mahallesi", "addr:postcode": "34953", "addr:street": "Dersaadet Cad.", "amenity": "fuel", "brand": "Shell", "brand:wikidata": "Q110716465", "brand:wikipedia": "en:Royal Dutch Shell", "name": "Shell"}}, {"type": "node", "id": 9272881830, "lat": 40.8603752, "lon": 29.3863957, "tags": {"addr:city": "Kocaeli", "addr:country": "TR", "addr:district": "\u00c7ay\u0131rova", "addr:housenumber": "3/A", "addr:neighbourhood": "\u015eekerp\u0131nar Mahallesi", "addr:postcode": "41420", "addr:street": "Turgut \u00d6zal Caddesi", "amenity": "fuel", "brand": "Opet", "brand:wikidata": "Q7072824", "brand:wikipedia": "en:Opet", "contact:fax": "+90 2626582243", "contact:phone": "+90 2626582242", "fuel:diesel": "yes", "fuel:lpg": "yes", "name": "Opet \u00c7ay\u0131rova", "operator": "Opet Petrolc\u00fcl\u00fck A.\u015e.", "source": "Yellow Pages T\u00fcrkiye", "website": "https://www.opet.com.tr/"}}, {"type": "node", "id": 9272881832, "lat": 40.9183976, "lon": 29.3514665, "tags": {"addr:city": "\u0130stanbul", "addr:country": "TR", "addr:district": "Tuzla", "addr:housenumber": "6", "addr:neighbourhood": "Fatih Mahallesi", "addr:postcode": "34956", "addr:street": "\u00c7elebi Caddesi", "amenity": "fuel", "brand": "TotalEnergies", "brand:wikidata": "Q154037", "brand:wikipedia": "en:Opet", "check_date": "2025-04-27", "contact:fax": "+90 2164824973", "contact:phone": "+90 2164825011", "fuel:diesel": "yes", "fuel:lpg": "yes", "name": "Total Tuzla", "name:tr": "mehmetcik vakfi 552", "opening_hours": "24/7", "operator": "Opet Petrolc\u00fcl\u00fck A.\u015e.", "source": "Yellow Pages T\u00fcrkiye", "website": "https://www.opet.com.tr/"}}, {"type": "node", "id": 9282741025, "lat": 40.7958497, "lon": 29.3872712, "tags": {"addr:city": "Kocaeli", "addr:country": "TR", "addr:district": "Gebze", "addr:housenumber": "52", "addr:neighbourhood": "Beylikba\u011f\u0131 Mahallesi", "addr:postcode": "41400", "addr:street": "G\u00fcney Yan Yol", "amenity": "fuel", "brand": "Opet", "brand:wikidata": "Q7072824", "brand:wikipedia": "en:Opet", "contact:fax": "+90 2626531056", "contact:phone": "+90 2626531055", "fuel:diesel": "yes", "fuel:lpg": "yes", "name": "Opet Gebze", "operator": "Opet Petrolc\u00fcl\u00fck A.\u015e.", "source": "Yellow Pages T\u00fcrkiye", "website": "https://www.opet.com.tr/"}}, {"type": "node", "id": 9282741027, "lat": 40.844676, "lon": 29.3058965, "tags": {"amenity": "fuel", "brand": "Shell", "brand:wikidata": "Q110716465", "brand:wikipedia": "en:Petrol Ofisi", "name": "Shell"}}, {"type": "node", "id": 9282741028, "lat": 40.8760027, "lon": 29.2630048, "tags": {"amenity": "fuel", "brand": "Shell", "brand:wikidata": "Q110716465", "brand:wikipedia": "en:Royal Dutch Shell", "name": "Shell", "source": "bing"}}, {"type": "node", "id": 9282741029, "lat": 40.8800399, "lon": 29.2594429, "tags": {"amenity": "fuel"}}, {"type": "node", "id": 9283133180, "lat": 40.8130443, "lon": 29.3684457, "tags": {"amenity": "fuel"}}, {"type": "node", "id": 9283133181, "lat": 40.814681, "lon": 29.3721052, "tags": {"addr:city": "Kocaeli", "addr:district": "\u00c7ay\u0131rova", "addr:housenumber": "1", "addr:neighbourhood": "\u00c7ay\u0131rova", "addr:postcode": "41420", "addr:street": "Ali Haydar Efendi Caddesi", "amenity": "fuel", "brand": "bpet", "check_date": "2021-11-25", "name": "Bpet K\u00fcbra PEtrol"}}, {"type": "node", "id": 9283133182, "lat": 40.8225544, "lon": 29.4151031, "tags": {"amenity": "fuel", "name": "seng petrol petline", "source": "bing"}}, {"type": "node", "id": 9283133183, "lat": 40.8365985, "lon": 29.4060533, "tags": {"addr:city": "Kocaeli", "addr:country": "TR", "addr:district": "\u00c7ay\u0131rova", "addr:housenumber": "283", "addr:neighbourhood": "Akse Mahallesi", "addr:postcode": "41420", "addr:street": "Rahmi Dibek Caddesi", "amenity": "fuel", "brand": "Opet", "contact:fax": "+90 2627449907", "contact:phone": "+90 2627449906", "fuel:diesel": "yes", "fuel:lpg": "yes", "name": "Opet \u00c7ay\u0131rova", "not:brand:wikidata": "Q7072824", "operator": "Opet Petrolc\u00fcl\u00fck A.\u015e.", "source": "Yellow Pages T\u00fcrkiye", "website": "https://www.opet.com.tr/"}}, {"type": "node", "id": 9283133184, "lat": 40.8194752, "lon": 29.3062437, "tags": {"addr:city": "\u0130stanbul", "addr:country": "TR", "addr:district": "Tuzla", "addr:housenumber": "59", "addr:neighbourhood": "Postane Mahallesi", "addr:postcode": "34940", "addr:street": "\u0130stasyon Caddesi", "amenity": "fuel", "brand": "Opet", "brand:wikidata": "Q7072824", "brand:wikipedia": "en:Opet", "contact:fax": "+90 2163956013", "contact:phone": "+90 2163956013", "fuel:diesel": "yes", "fuel:lpg": "yes", "name": "Opet Tuzla", "operator": "Opet Petrolc\u00fcl\u00fck A.\u015e.", "source": "Yellow Pages T\u00fcrkiye", "website": "https://www.opet.com.tr/"}}, {"type": "node", "id": 9283139107, "lat": 40.9358432, "lon": 29.3611401, "tags": {"addr:city": "\u0130stanbul", "addr:district": "Tuzla", "addr:housenumber": "48", "addr:neighbourhood": "Tepe\u00f6ren Mahallesi", "addr:postcode": "34959", "addr:street": "\u0130stanbul Park Bulvar\u0131", "amenity": "fuel", "brand": "BP", "brand:wikidata": "Q152057", "fixme": "check brand, BP in Turkey is acquired by Petrol Ofisi. Don't delete fixme if still BP please.", "name": "BP", "phone": "+90 216 677 16 29", "website": "https://map.bp.com/tr-TR/TR/petrol-istasyonu/istanbul/formula/431015519"}}, {"type": "node", "id": 9283139109, "lat": 40.9405618, "lon": 29.3698716, "tags": {"addr:city": "\u0130stanbul", "addr:district": "Tuzla", "addr:housenumber": "21", "addr:neighbourhood": "Tepe\u00f6ren", "addr:postcode": "34959", "addr:street": "\u0130stanbul Park Bulvar\u0131", "amenity": "fuel", "brand": "Shell", "brand:wikidata": "Q110716465", "name": "Shell"}}, {"type": "node", "id": 9283139110, "lat": 40.9426442, "lon": 29.373383, "tags": {"addr:city": "\u0130stanbul", "addr:housenumber": "36", "addr:neighbourhood": "Tepe\u00f6ren Mahallesi", "addr:postcode": "34959", "addr:street": "\u0130stanbul Park Bulvar\u0131", "amenity": "fuel", "brand": "Petrol Ofisi", "brand:wikidata": "Q1278087", "brand:wikipedia": "en:Petrol Ofisi", "name": "Petrol Ofisi"}}, {"type": "node", "id": 9283139111, "lat": 40.9283857, "lon": 29.4360139, "tags": {"amenity": "fuel", "brand": "Opet", "brand:wikidata": "Q7072824", "name": "Opet"}}, {"type": "node", "id": 9283139116, "lat": 40.9445864, "lon": 29.3880242, "tags": {"amenity": "fuel", "brand": "Lukoil", "brand:wikidata": "Q329347", "brand:wikipedia": "en:Lukoil", "name": "Lukoil", "source": "bing"}}, {"type": "node", "id": 9283139717, "lat": 40.9350119, "lon": 29.3288072, "tags": {"addr:city": "\u0130stanbul", "addr:country": "TR", "addr:district": "Pendik", "addr:housenumber": "21", "addr:neighbourhood": "Yeni\u015fehir Mahallesi", "addr:postcode": "34912", "addr:street": "Dedepa\u015fa Caddesi", "amenity": "fuel", "brand": "TotalEnergies", "brand:wikidata": "Q154037", "fuel:diesel": "yes", "fuel:lpg": "yes", "fuel:octane_95": "yes", "name": "TotalEnergies TSK Mehmetcik Vakf\u0131", "opening_hours": "24/7", "operator": "G\u00fczel Enerji", "website": "https://totalenergiesistasyonlari.com.tr/"}}, {"type": "node", "id": 9283195049, "lat": 41.0221984, "lon": 29.0429366, "tags": {"addr:city": "\u0130stanbul", "addr:district": "\u00dcsk\u00fcdar", "addr:neighbourhood": "Altunizade Mahallesi", "addr:street": "Mahir \u0130z Caddesi", "amenity": "fuel", "brand": "TotalEnergies", "brand:wikidata": "Q154037", "brand:wikipedia": "fr:TotalEnergies", "name": "Total"}}, {"type": "node", "id": 9283195050, "lat": 41.0230199, "lon": 29.0430475, "tags": {"addr:city": "\u0130stanbul", "addr:district": "\u00dcsk\u00fcdar", "addr:neighbourhood": "Altunizade Mahallesi", "addr:street": "K\u0131s\u0131kl\u0131 Caddesi", "amenity": "fuel", "brand": "TotalEnergies", "brand:wikidata": "Q154037", "brand:wikipedia": "fr:TotalEnergies", "compressed_air": "yes", "fuel:diesel": "yes", "fuel:lpg": "yes", "fuel:octane_95": "yes", "name": "Total", "operator": "total"}}, {"type": "node", "id": 9283195051, "lat": 41.0237064, "lon": 29.041962, "tags": {"addr:city": "\u0130stanbul", "addr:country": "TR", "addr:district": "\u00dcsk\u00fcdar", "addr:housenumber": "25", "addr:neighbourhood": "Altunizade Mahallesi", "addr:postcode": "34662", "addr:street": "K\u0131s\u0131kl\u0131 Caddesi", "amenity": "fuel", "brand": "Opet", "brand:wikidata": "Q7072824", "brand:wikipedia": "en:Opet", "compressed_air": "yes", "contact:fax": "+90 2164747032", "contact:phone": "+90 2164747023", "fuel:diesel": "yes", "fuel:lpg": "yes", "name": "Opet \u00dcsk\u00fcdar", "operator": "Opet Petrolc\u00fcl\u00fck A.\u015e.", "source": "Yellow Pages T\u00fcrkiye", "website": "https://www.opet.com.tr/"}}, {"type": "node", "id": 9283195052, "lat": 41.0241529, "lon": 29.0548718, "tags": {"amenity": "fuel", "brand": "Opet", "brand:wikidata": "Q7072824", "name": "Opet"}}, {"type": "node", "id": 9283195053, "lat": 41.023903, "lon": 29.0815897, "tags": {"amenity": "fuel", "brand": "TotalEnergies", "brand:wikidata": "Q154037", "brand:wikipedia": "fr:TotalEnergies", "name": "Total"}}, {"type": "node", "id": 9283216811, "lat": 41.0029931, "lon": 29.0362236, "tags": {"amenity": "fuel", "brand": "TotalEnergies", "brand:wikidata": "Q154037", "brand:wikipedia": "fr:TotalEnergies", "name": "Total"}}, {"type": "node", "id": 9283216812, "lat": 41.0031836, "lon": 29.0341387, "tags": {"amenity": "fuel", "branch": "Ac\u0131badem", "brand": "Shell", "brand:wikidata": "Q110716465", "brand:wikipedia": "en:Royal Dutch Shell", "name": "Shell"}}, {"type": "node", "id": 9283216813, "lat": 41.0068267, "lon": 29.0251505, "tags": {"amenity": "fuel", "brand": "Shell", "brand:wikidata": "Q110716465", "brand:wikipedia": "en:Royal Dutch Shell", "compressed_air": "yes", "name": "Shell"}}, {"type": "node", "id": 9300226842, "lat": 40.9194604, "lon": 29.2866564, "tags": {"amenity": "fuel", "brand": "Petrol Ofisi", "brand:wikidata": "Q1278087", "compressed_air": "yes", "name": "Petrol Ofisi", "self_service": "no"}}, {"type": "node", "id": 9300226844, "lat": 40.8942418, "lon": 29.2593302, "tags": {"addr:city": "\u0130stanbul", "addr:district": "Pendik", "addr:street": "Hukuk\u00e7ular Caddesi", "amenity": "fuel", "fuel:diesel": "yes", "fuel:lpg": "yes", "fuel:octane_95": "yes", "name": "Energy", "opening_hours": "24/7", "operator": "Energy", "payment:cash": "yes", "payment:credit_cards": "yes", "payment:debit_cards": "yes", "payment:maestro": "yes", "payment:mastercard": "yes", "payment:visa": "yes"}}, {"type": "node", "id": 9300325252, "lat": 40.9810361, "lon": 29.1311204, "tags": {"amenity": "fuel", "brand": "Shell", "brand:wikidata": "Q110716465", "brand:wikipedia": "en:Royal Dutch Shell", "name": "Shell"}}, {"type": "node", "id": 9300325253, "lat": 40.9793625, "lon": 29.1271977, "tags": {"amenity": "fuel", "brand": "BP", "brand:wikidata": "Q152057", "brand:wikipedia": "en:BP", "name": "BP Kay\u0131\u015fda\u011f\u0131"}}, {"type": "node", "id": 9300325266, "lat": 40.9790501, "lon": 29.1046565, "tags": {"addr:city": "\u0130stanbul", "addr:district": "Ata\u015fehir", "addr:housenumber": "8", "addr:neighbourhood": "\u0130\u00e7erenk\u00f6y", "addr:street": "Kay\u0131\u015fda\u011f\u0131 Caddesi", "amenity": "fuel", "branch": "TP Ata\u015fehir DOCO", "brand": "T\u00fcrkiye Petrolleri", "brand:wikidata": "Q15946806", "name": "T\u00fcrkiye Petrolleri"}}, {"type": "node", "id": 9300325267, "lat": 40.9853132, "lon": 29.107179, "tags": {"amenity": "fuel", "brand": "Shell", "brand:wikidata": "Q110716465", "brand:wikipedia": "en:Royal Dutch Shell", "name": "Shell"}}, {"type": "node", "id": 9300325268, "lat": 40.9859873, "lon": 29.108754, "tags": {"amenity": "fuel", "brand": "Petrol Ofisi", "brand:wikidata": "Q1278087", "brand:wikipedia": "en:Petrol Ofisi", "name": "Petrol Ofisi"}}, {"type": "node", "id": 9308433308, "lat": 40.8895343, "lon": 29.2067711, "tags": {"amenity": "fuel", "brand": "Petrol Ofisi", "brand:wikidata": "Q1278087", "name": "Petrol Ofisi"}}, {"type": "node", "id": 9308461062, "lat": 40.8970717, "lon": 29.2257208, "tags": {"amenity": "fuel", "brand": "Aytemiz", "brand:wikidata": "Q62274352", "name": "Aytemiz"}}, {"type": "node", "id": 9308541967, "lat": 40.9478483, "lon": 29.1064953, "tags": {"amenity": "fuel", "brand": "Petrol Ofisi", "brand:wikidata": "Q1278087", "brand:wikipedia": "en:Petrol Ofisi", "name": "Petrol Ofisi"}}, {"type": "node", "id": 9308547296, "lat": 40.9806612, "lon": 29.0418373, "tags": {"amenity": "fuel", "brand": "Petrol Ofisi", "brand:wikidata": "Q1278087", "fuel:diesel": "yes", "fuel:octane_95": "yes", "name": "Petrol Ofisi", "opening_hours": "24/7"}}, {"type": "node", "id": 9308547309, "lat": 40.9839354, "lon": 29.0400899, "tags": {"addr:city": "\u0130stanbul", "addr:country": "TR", "addr:district": "Kad\u0131k\u00f6y", "addr:housenumber": "37", "addr:neighbourhood": "Z\u00fcht\u00fcpa\u015fa Mahallesi", "addr:postcode": "34724", "addr:street": "Ba\u011fdat Caddesi", "amenity": "fuel", "brand": "Opet", "brand:wikidata": "Q7072824", "brand:wikipedia": "en:Opet", "compressed_air": "yes", "contact:fax": "+90 2163473608", "contact:phone": "+90 2163362665", "fuel:diesel": "yes", "fuel:lpg": "yes", "name": "Opet K\u0131z\u0131ltoprak", "operator": "Opet Petrolc\u00fcl\u00fck A.\u015e.", "source": "Yellow Pages T\u00fcrkiye", "website": "https://www.opet.com.tr/"}}, {"type": "node", "id": 9311961842, "lat": 41.0141227, "lon": 29.1637819, "tags": {"addr:city": "\u0130stanbul", "addr:country": "TR", "addr:district": "\u00dcmraniye", "addr:housenumber": "6", "addr:neighbourhood": "Necip Faz\u0131l Mahallesi", "addr:postcode": "34773", "addr:street": "Necip Faz\u0131l Bulvar\u0131", "amenity": "fuel", "brand": "Opet", "brand:wikidata": "Q7072824", "brand:wikipedia": "en:Opet", "contact:fax": "+90 2164153041", "contact:phone": "+90 2165263860", "fuel:diesel": "yes", "fuel:lpg": "yes", "name": "Opet \u00dcmraniye", "operator": "Opet Petrolc\u00fcl\u00fck A.\u015e.", "source": "bing", "website": "https://www.opet.com.tr/"}}, {"type": "node", "id": 9311961843, "lat": 41.0157593, "lon": 29.1531253, "tags": {"amenity": "fuel", "source": "bing"}}, {"type": "node", "id": 9311961844, "lat": 41.0160928, "lon": 29.1503703, "tags": {"amenity": "fuel", "source": "bing"}}, {"type": "node", "id": 9311961845, "lat": 41.01646, "lon": 29.1460319, "tags": {"amenity": "fuel", "brand": "Opet", "brand:wikidata": "Q7072824", "brand:wikipedia": "en:Opet", "name": "Opet Orta\u015f", "name:tr": "Opet Orta\u015f", "source": "bing"}}, {"type": "node", "id": 9311961846, "lat": 41.0055207, "lon": 29.1463068, "tags": {"amenity": "fuel", "brand": "Petrol Ofisi", "brand:wikidata": "Q1278087", "brand:wikipedia": "en:Petrol Ofisi", "name": "Erk Petrol"}}, {"type": "node", "id": 9311961847, "lat": 41.0132643, "lon": 29.1072865, "tags": {"amenity": "fuel", "brand": "Petrol Ofisi", "brand:wikidata": "Q1278087", "brand:wikipedia": "en:Petrol Ofisi", "name": "Petrol Ofisi"}}, {"type": "node", "id": 9312145700, "lat": 40.8967672, "lon": 29.203426, "tags": {"addr:city": "\u0130stanbul", "addr:district": "Kartal", "addr:housenumber": "61", "addr:neighbourhood": "\u00c7avu\u015fo\u011flu Mahallesi", "addr:postcode": "34873", "addr:street": "Spor Caddesi", "amenity": "fuel", "brand": "Petrol Ofisi", "brand:wikidata": "Q1278087", "name": "Petrol Ofisi", "panoramax": "b06c7d62-fdf1-4281-9169-9be6317b6215"}}, {"type": "node", "id": 9312162023, "lat": 40.9585228, "lon": 29.2148183, "tags": {"amenity": "fuel", "source": "bing"}}, {"type": "node", "id": 9312925430, "lat": 41.0449576, "lon": 29.1771714, "tags": {"amenity": "fuel", "brand": "TotalEnergies", "brand:wikidata": "Q154037", "brand:wikipedia": "fr:TotalEnergies", "name": "Total"}}, {"type": "node", "id": 9631017031, "lat": 41.0095068, "lon": 29.2105832}, {"type": "node", "id": 9723710749, "lat": 41.0098579, "lon": 29.2105503}, {"type": "node", "id": 9794657780, "lat": 41.0083247, "lon": 29.2021579}, {"type": "node", "id": 9794662364, "lat": 41.0167216, "lon": 29.1775674}, {"type": "node", "id": 9796710593, "lat": 40.9912638, "lon": 29.2239075}, {"type": "node", "id": 10261146657, "lat": 40.9876496, "lon": 29.1435257}, {"type": "node", "id": 10261146679, "lat": 40.9883759, "lon": 29.1450783}, {"type": "node", "id": 10261146680, "lat": 40.9882763, "lon": 29.1459218}, {"type": "node", "id": 10304008916, "lat": 40.8412104, "lon": 29.433522, "tags": {"amenity": "fuel"}}, {"type": "node", "id": 10304008918, "lat": 40.8577015, "lon": 29.394136, "tags": {"amenity": "fuel"}}, {"type": "node", "id": 10316677592, "lat": 41.0325901, "lon": 29.110803}, {"type": "node", "id": 10772615935, "lat": 40.8690844, "lon": 29.3347683, "tags": {"amenity": "fuel", "brand": "Petrol Ofisi", "brand:wikidata": "Q1278087", "name": "Petrol Ofisi"}}, {"type": "node", "id": 11331739897, "lat": 40.9705543, "lon": 29.1009385, "tags": {"addr:city": "\u0130stanbul", "addr:country": "TR", "addr:district": "Kad\u0131k\u00f6y", "addr:housenumber": "115", "addr:neighbourhood": "Kozyata\u011f\u0131 Mahallesi", "addr:postcode": "34742", "addr:street": "Bayar Caddesi", "amenity": "fuel", "brand": "Opet", "brand:wikidata": "Q7072824", "brand:wikipedia": "en:Opet", "contact:fax": "+90 2163844750", "contact:phone": "+90 2163844747", "fuel:diesel": "yes", "fuel:lpg": "yes", "name": "Opet Kad\u0131k\u00f6y", "operator": "Opet Petrolc\u00fcl\u00fck A.\u015e.", "source": "Yellow Pages T\u00fcrkiye", "website": "https://www.opet.com.tr/"}}, {"type": "node", "id": 11572168442, "lat": 40.813543, "lon": 29.4317558, "tags": {"amenity": "fuel", "brand": "Opet", "brand:wikidata": "Q7072824", "name": "Opet"}}, {"type": "node", "id": 11572168443, "lat": 40.8141603, "lon": 29.4318381, "tags": {"amenity": "fuel"}}, {"type": "node", "id": 11572210078, "lat": 40.8261432, "lon": 29.4172899, "tags": {"amenity": "fuel"}}, {"type": "node", "id": 11572210095, "lat": 40.8113952, "lon": 29.4219696, "tags": {"amenity": "fuel", "brand": "BP", "brand:wikidata": "Q152057", "fixme": "check brand, BP in Turkey is acquired by Petrol Ofisi. Don't delete fixme if still BP please.", "name": "BP"}}, {"type": "node", "id": 11578262694, "lat": 40.8807816, "lon": 29.2499652, "tags": {"amenity": "fuel", "brand": "Petrol Ofisi", "brand:wikidata": "Q1278087", "fuel:adblue": "yes", "fuel:diesel": "yes", "fuel:lpg": "yes", "fuel:octane_95": "yes", "name": "Petrol Ofisi", "operator": "Modo\u011flu"}}, {"type": "node", "id": 11578383440, "lat": 40.9884588, "lon": 29.1455518, "tags": {"amenity": "fuel", "brand": "Petrol Ofisi", "brand:wikidata": "Q1278087", "name": "Petrol Ofisi"}}, {"type": "node", "id": 11578580141, "lat": 40.9841631, "lon": 29.0569144, "tags": {"addr:city": "\u0130stanbul", "addr:country": "TR", "addr:district": "Kad\u0131k\u00f6y", "addr:housenumber": "140", "addr:neighbourhood": "Feneryolu Mahallesi", "addr:postcode": "34724", "addr:street": "Fahrettin Kerim G\u00f6kay Caddesi", "amenity": "fuel", "brand": "Opet", "brand:wikidata": "Q7072824", "brand:wikipedia": "en:Opet", "contact:fax": "+90 2165664468", "contact:phone": "+90 2165664467", "fuel:diesel": "yes", "fuel:lpg": "yes", "landuse": "retail", "name": "Opet", "name:tr": "hamidi petrol 077", "operator": "Opet Petrolc\u00fcl\u00fck A.\u015e.", "source": "Yellow Pages T\u00fcrkiye", "website": "https://www.opet.com.tr/"}}, {"type": "node", "id": 11586206717, "lat": 40.9290485, "lon": 29.1462548, "tags": {"amenity": "fuel", "brand": "Opet", "brand:wikidata": "Q7072824", "name": "Opet Maltepe"}}, {"type": "node", "id": 11586206756, "lat": 41.0330705, "lon": 29.1107764, "tags": {"amenity": "fuel", "brand": "Shell Express", "brand:wikidata": "Q2289188", "name": "Shell Express"}}, {"type": "node", "id": 11586230277, "lat": 41.0205482, "lon": 29.1296114, "tags": {"addr:city": "\u0130stanbul", "addr:district": "\u00dcmraniye", "addr:housenumber": "225", "addr:neighbourhood": "Ihlamurkuyu", "addr:postcode": "34771", "addr:street": "Alemda\u011f Caddesi", "amenity": "fuel", "branch": "\u00dcmraniye Tepe\u00fcst\u00fc", "brand": "Shell", "brand:wikidata": "Q110716465", "compressed_air": "yes", "name": "Shell", "opening_hours": "24/7", "phone": "+90 216 611 0439", "website": "https://find.shell.com/tr/fuel/10050044-umraniye-tepeustu/tr_TR"}}, {"type": "node", "id": 11597366416, "lat": 40.8319387, "lon": 29.4265665, "tags": {"amenity": "fuel"}}, {"type": "node", "id": 11597366417, "lat": 40.8387491, "lon": 29.4080299, "tags": {"addr:city": "Kocaeli", "addr:district": "\u00c7ay\u0131rova", "addr:neighbourhood": "Akse Mahallesi", "amenity": "fuel", "brand": "Shell", "brand:wikidata": "Q110716465", "fuel:diesel": "yes", "fuel:octane_95": "yes", "fuel:octane_98": "yes", "name": "Shell", "source": "microsoft/BuildingFootprints"}}, {"type": "node", "id": 11597366425, "lat": 40.854094, "lon": 29.394338, "tags": {"amenity": "fuel"}}, {"type": "node", "id": 11741162818, "lat": 40.9161243, "lon": 29.169956, "tags": {"amenity": "fuel", "branch": "Cevizli", "brand": "Shell", "brand:wikidata": "Q110716465", "name": "Shell"}}, {"type": "node", "id": 11744840531, "lat": 40.8982602, "lon": 29.1641302, "tags": {"amenity": "fuel"}}, {"type": "node", "id": 12019754554, "lat": 41.0364972, "lon": 29.0657564}, {"type": "node", "id": 12019788121, "lat": 41.0364523, "lon": 29.065735}, {"type": "node", "id": 12022188640, "lat": 40.9914725, "lon": 29.2243509}, {"type": "node", "id": 12198501225, "lat": 41.0044928, "lon": 29.030382, "tags": {"amenity": "fuel", "branch": "Haydarpa\u015fa E5", "brand": "Shell", "brand:wikidata": "Q110716465", "name": "Shell"}}, {"type": "node", "id": 12240815361, "lat": 40.9172131, "lon": 29.3543737, "tags": {"amenity": "fuel", "brand": "TotalEnergies", "brand:wikidata": "Q154037", "name": "Total Energies"}}, {"type": "node", "id": 12240815362, "lat": 40.9206579, "lon": 29.3502175, "tags": {"addr:city": "\u0130stanbul", "addr:country": "TR", "addr:district": "Tuzla", "addr:housenumber": "2", "addr:neighbourhood": "Fatih Mahallesi", "addr:postcode": "34956", "addr:street": "Katip \u00c7elebi Caddesi", "amenity": "fuel", "brand": "TotalEnergies", "brand:wikidata": "Q154037", "brand:wikipedia": "tr:Opet", "check_date": "2025-04-27", "contact:fax": "+90 2164824973", "contact:phone": "+90 2164824983", "fuel:diesel": "yes", "fuel:lpg": "yes", "name": "Total Tuzla", "opening_hours": "24/7", "operator": "Opet Petrolc\u00fcl\u00fck A.\u015e.", "source": "Yellow Pages T\u00fcrkiye", "website": "https://www.opet.com.tr/"}}, {"type": "node", "id": 12240935663, "lat": 40.9108193, "lon": 29.1991062, "tags": {"amenity": "fuel", "brand": "BP", "brand:wikidata": "Q152057", "name": "BP"}}, {"type": "node", "id": 12292231682, "lat": 40.9921217, "lon": 29.223997}, {"type": "node", "id": 12292231683, "lat": 40.9918996, "lon": 29.2233479}, {"type": "node", "id": 12293965659, "lat": 41.0165308, "lon": 29.1417287}, {"type": "node", "id": 12293965662, "lat": 41.01626, "lon": 29.1461656}, {"type": "node", "id": 12307722101, "lat": 41.0310203, "lon": 29.230925, "tags": {"amenity": "fuel", "brand": "Shell", "brand:wikidata": "Q110716465", "name": "Shell", "opening_hours": "24/7", "website": "https://www.shell.com.tr/"}}, {"type": "node", "id": 12478150157, "lat": 41.0036211, "lon": 29.2167701}, {"type": "node", "id": 12478150158, "lat": 41.003565, "lon": 29.2168515}, {"type": "node", "id": 12629234592, "lat": 40.8524138, "lon": 29.3115618}, {"type": "node", "id": 12629234593, "lat": 40.8520917, "lon": 29.3119635}, {"type": "node", "id": 12629234594, "lat": 40.8518558, "lon": 29.3115074}, {"type": "node", "id": 12629234595, "lat": 40.852042, "lon": 29.3111912}, {"type": "node", "id": 12629234596, "lat": 40.8522039, "lon": 29.311193}, {"type": "node", "id": 12629235209, "lat": 40.8517928, "lon": 29.3116821}, {"type": "node", "id": 12642261088, "lat": 41.0370307, "lon": 29.1555158}, {"type": "node", "id": 12642261089, "lat": 41.0367978, "lon": 29.155408}, {"type": "node", "id": 12642261090, "lat": 41.0367333, "lon": 29.1556531}, {"type": "node", "id": 12642261091, "lat": 41.0369661, "lon": 29.1557609}, {"type": "node", "id": 12642261092, "lat": 41.037137, "lon": 29.1555921}, {"type": "node", "id": 12642261093, "lat": 41.0370318, "lon": 29.1555478}, {"type": "node", "id": 12642261094, "lat": 41.0369822, "lon": 29.1557316},