{"version": 0.6, "generator": "Overpass API 0.7.62.10 2d4cfc48", "osm3s": {"timestamp_osm_base": "2026-03-06T12:00:58Z", "copyright": "The data included in this document is from www.openstreetmap.org. The data is made available under ODbL."}, "elements": [{"type": "node", "id": 4699023920, "lat": 41.0353809, "lon": 28.4457793, "tags": {"addr:city": "\u0130stanbul", "addr:country": "TR", "addr:district": "B\u00fcy\u00fck\u00e7ekmece", "addr:housenumber": "753/A", "addr:neighbourhood": "Kamiloba Mahallesi", "addr:postcode": "34584", "addr:street": "E-5 Karayolu", "amenity": "fuel", "brand": "Opet", "brand:wikidata": "Q7072824", "brand:wikipedia": "tr:Opet", "contact:phone": "+90 2126051122", "fuel:diesel": "yes", "fuel:euro_diesel": "yes", "fuel:lpg": "yes", "name": "Opet B\u00fcy\u00fck\u00e7ekmece Kamiloba", "operator": "Opet Petrolc\u00fcl\u00fck A.\u015e.", "source": "Yellow Pages T\u00fcrkiye", "website": "https://www.opet.com.tr/"}}, {"type": "node", "id": 6332664122, "lat": 41.0265141, "lon": 28.4656456, "tags": {"amenity": "fuel", "brand": "Alpet", "brand:wikidata": "Q62131561", "name": "Alpet Ayar Petrol"}}, {"type": "node", "id": 6642219171, "lat": 41.0498134, "lon": 28.3909638, "tags": {"amenity": "fuel", "brand": "Energy", "name": "Energy Petrol Selimpa\u015fa", "operator": "Energy Petrol Selimpa\u015fa"}}, {"type": "node", "id": 8785545916, "lat": 41.0378019, "lon": 28.4372572, "tags": {"amenity": "fuel", "brand": "BP", "brand:wikidata": "Q152057", "brand:wikipedia": "en:BP", "fixme": "check brand, BP in Turkey is acquired by Petrol Ofisi. Don't delete fixme if still BP please.", "name": "BP B\u00fcy\u00fck\u00e7ekmece Kamiloba"}}, {"type": "node", "id": 8785545975, "lat": 41.0402471, "lon": 28.4284738, "tags": {"amenity": "fuel", "brand": "Petrol Ofisi", "brand:wikidata": "Q1278087", "brand:wikipedia": "en:Petrol Ofisi", "name": "Petrol Ofisi B\u00fcy\u00fck\u00e7ekmece Kamiloba"}}, {"type": "node", "id": 9283174693, "lat": 41.0603926, "lon": 28.0843218, "tags": {"amenity": "fuel", "brand": "Shell", "brand:wikidata": "Q110716465", "brand:wikipedia": "en:Royal Dutch Shell", "name": "Shell G\u00fcm\u00fc\u015fyaka", "source": "bing"}}, {"type": "node", "id": 9295133709, "lat": 41.0436104, "lon": 28.0358371, "tags": {"amenity": "fuel", "brand": "Total", "brand:wikidata": "Q154037", "brand:wikipedia": "fr:TotalEnergies", "name": "Total G\u00fcm\u00fc\u015fyaka"}}, {"type": "node", "id": 9299860547, "lat": 41.0516552, "lon": 28.3869997, "tags": {"amenity": "fuel", "name": "Energy S\u00fcperpet"}}, {"type": "node", "id": 9399630295, "lat": 41.0562743, "lon": 28.369957}, {"type": "node", "id": 11329071121, "lat": 41.0508416, "lon": 28.0555739, "tags": {"amenity": "fuel"}}, {"type": "node", "id": 12441887647, "lat": 41.0283824, "lon": 28.4598276, "tags": {"addr:city": "\u0130stanbul", "addr:district": "B\u00fcy\u00fck\u00e7ekmece", "addr:housenumber": "662", "addr:neighbourhood": "Kumburgaz", "addr:postcode": "34530", "addr:street": "\u0130stanbul Caddesi", "amenity": "fuel", "branch": "Kumburgaz", "brand": "BP", "brand:wikidata": "Q152057", "brand:wikipedia": "en:BP", "fixme": "check brand, BP in Turkey is acquired by Petrol Ofisi. Don't delete fixme if still BP please.", "name": "BP", "opening_hours": "24/7", "operator": "Neve Petrol", "phone": "+90 212 885 10 70"}}, {"type": "node", "id": 13464234626, "lat": 41.0566062, "lon": 28.3700521}, {"type": "node", "id": 13464234627, "lat": 41.0564087, "lon": 28.3706791}, {"type": "node", "id": 13464234628, "lat": 41.0563547, "lon": 28.3707253}, {"type": "node", "id": 13464234629, "lat": 41.0561427, "lon": 28.3706082}, {"type": "node", "id": 13464234630, "lat": 41.0561032, "lon": 28.3705119}, {"type": "node", "id": 13464234631, "lat": 41.0565468, "lon": 28.3700886}, {"type": "node", "id": 13464234632, "lat": 41.0565637, "lon": 28.3700307}, {"type": "way", "id": 1468004382, "nodes": [9399630295, 13464234631, 13464234632, 13464234626, 13464234627, 13464234628, 13464234629, 13464234630, 9399630295], "tags": {"addr:city": "\u0130stanbul", "addr:district": "Silivri", "addr:neighbourhood": "Selimpa\u015fa", "addr:postcode": "34590", "addr:street": "Londra Asfalt\u0131", "amenity": "fuel", "branch": "Selimpa\u015fa Merkez", "brand": "Shell", "brand:wikidata": "Q110716465", "brand:wikipedia": "en:Royal Dutch Shell", "name": "Shell", "opening_hours": "24/7", "phone": "+90 212 731 20 41", "source": "bing", "website": "https://find.shell.com/tr/fuel/12487978-selimpasa-merkez/tr_TR"}}]}